Area,Mapped,Number,Project,Address,City,State,Latitude,Longitude,Description,Developer_General_Contractor,Cost,Date,Status,Checked,Map Circle color
01-Medical Campus,YES,1,Wayne & Waldorf,1106-1110 Main St.,Buffalo,NY,42.9039560,-78.8690050,,Sinatra & Co.,$5.3,2015,Completed,Sinatra,#CA6266
01-Medical Campus,YES,2,Jacobs Institute,875 Ellicott St.,Buffalo,NY,42.9016180,-78.8660700,"20,800 SF medical device prototyping facility",LPCiminelli Inc.,$9.0,2015,Completed,Empire State,#CA6266
01-Medical Campus,YES,3,Conventus ,1001 Main St.,Buffalo,NY,42.9008450,-78.8687940,"300,000 SF, six-story medical office building with below ground parking. Connected to John R. Oishei Children's Hospital and UB School of Medicine","Ciminelli Real Estate Corp, LPCiminelli Inc.",$110.0,2015,Completed,"ECIDA/Ciminelli, LPCiminelli",#CA6266
01-Medical Campus,YES,4,Roswell Center for Genetics & Pharmacology,Roswell Park Cancer Institute,Buffalo,NY,42.8991990,-78.8647400,Medical R&D,Roswell Park Cancer Institute,$74.0,2014,Completed,,#CA6266
01-Medical Campus,YES,5,Roswell Park Scott Bieler Clinical Sciences Center,Roswell Park Cancer Institute,Buffalo,NY,42.8991990,-78.8647400,"142,000 SF, 11-story clinical sciences center with chemo-infusion center",LeChase Construction Services LLC,$50.5,2016,Completed,Roswell,#CA6266
01-Medical Campus,YES,6,Bosche Lofts,916 Main St.,Buffalo,NY,42.8988490,-78.8705000,"23 apartments, first floor retail; renovation of 1891 buildings",Greenleaf Development,$6.2,2016,Completed,Mayor,#CA6266
01-Medical Campus,YES,7,Genomic Medicine and Big Data Center Capital,701 Ellicott St.,Buffalo,NY,42.8977650,-78.8666410,Machinery and equipment ,,$32.5,2015,Completed,NYS,#CA6266
01-Medical Campus,YES,8,EWI New York,847 Main St.,Buffalo,NY,42.8973080,-78.8701410,Buffalo Niagara Institute for advanced manufacturing competitiveness,,$5.3,2015,Completed,NYS,#CA6266
01-Medical Campus,YES,9,UB Educational Opportunity Center,555 Ellicott Street,Buffalo,NY,42.8940800,-78.8687920,"75,000 SF building for training in health sciences, information technology and environmental industries",Savarino Cos.,$26.0,2013,Completed,Bricks 2014,#CA6266
01-Medical Campus,YES,10,1154 Main,1154 Main St.,Buffalo,NY,42.9054430,-78.8689340,,,$25.0,2018,Under,Jim,#009770
01-Medical Campus,YES,11,Our Lady of Lourdes church,1115 Main St.,Buffalo,NY,42.9037670,-78.8677950,"Conversion of church into residential, office use",Ellicott Development Co.,$15.0,2017,Under,Jim,#009770
01-Medical Campus,YES,12,Pilgrim Village,903 Ellicott St.,Buffalo,NY,42.9030710,-78.8650890,165 senior and market rate units,Mark Trammell,$94.8,2017,Under,Jim,#009770
01-Medical Campus,YES,13,Campus Square,901 Ellicott St.,Buffalo,NY,42.9028970,-78.8663610,"400,000 SF, 8-story building, 152 apartments, 31,000 SF of retail space","McGuire Development Co., R&P Oak Hill, Mark Trammell",$70.0,2018,Under,McGuire,#009770
01-Medical Campus,YES,14,Nineteen North,23 North St.,Buffalo,NY,42.9025160,-78.8700400,Conversion of WEBR/WNED studios into 40-unit apartment building,First Amherst Development Group,$7.0,2016,Under,Jim,#009770
01-Medical Campus,YES,15,Ellicott Street Parking Structure,854 Ellicott St.,Buffalo,NY,42.9017490,-78.8674570,"640,000 SF parking structure","LeChase Construction Services LLC, BNMC Inc.",$53.5,2017,Under,"BNMC, ECIDA",#009770
01-Medical Campus,YES,16,John R. Oishei Children's Hospital,818 Ellicott St.,Buffalo,NY,42.9010390,-78.8674080,"12-story, 400,000 SF women and children's hospital","Turner Construction Co., Kaleida Health",$272.0,2017,Under,"Mayor, Tracey",#009770
01-Medical Campus,YES,17,Oshei  Children's Hospital Ambulatory Care Center,1001 Main Street,Buffalo,NY,42.9010390,-78.8674080,Relocate Women & Children's outpatient clinics from 219 Bryant to 1001 Main St.,"LPCiminelli Inc., Kaleida Health",$18.1,2017,Under,Kaleida,#009770
01-Medical Campus,YES,18,AMRI,1001 Main Street,Buffalo,,42.9008450,-78.8687940,Establish $250M pharmaceutical research and development facility known as Buffalo Medical Innovation and Commercialization Hub (BMIC HUB),"Fort Schuyler Development Corp., Ciminelli Real Estate",$30.0,2016,Under,Mayor,#009770
01-Medical Campus,YES,19,Jacobs University of Buffalo School of Medicine & Biomedical Sciences,Main and High streets,Buffalo,NY,42.9000790,-78.8690530,"8-story, 650,000 SF complex fo medical education, biomedical research and patient care",LPCiminelli Inc.,$375.0,2017,Under,"LPCiminelli Inc., Dan (amount)",#009770
01-Medical Campus,YES,20,Roswell Park Substation Modernization,Roswell Park Cancer Institute,Buffalo,NY,42.8991990,-78.8647400,Upgrade of electrical substation equipment to include new transformers and switchgear,,$7.0,2021,Under,Roswell,#009770
01-Medical Campus,YES,21,Roswell Park Pediatric Clinic,Roswell Park Cancer Institute,Buffalo,NY,42.8991990,-78.8647400,"Katherine, Anne and Donna Gioia Pediatric Hematology Oncology Center pediatric clinic on ground floor of hospital",,$5.7,2017,Under,Roswell,#009770
01-Medical Campus,YES,22,BNMC Smart Pill building,847 Main St.,Buffalo,NY,42.8973080,-78.8701410,Tenant space for startup and small companies,Krog Corp.,$8.0,2018,Under,Empire State,#009770
01-Medical Campus,YES,23,Phoenix Brewery Apartments,835 Washington St.,Buffalo,NY,42.8965440,-78.8693740,"31 apartments, commercial/retail space, underground parking",Sinatra & Co.,$7.7,2016,Under,Sinatra,#009770
01-Medical Campus,YES,24,BNMC Tunnel,640 Ellicott St.,Buffalo,NY,42.8958670,-78.8693300,Underground tunnel to connect Buffalo General Medical Center with new children's hospital,Turner Construction,$5.0,2016,Under,Empire State,#009770
01-Medical Campus,YES,25,Trico Building Redevelopment,791 Washington St.,Buffalo,NY,42.8954100,-78.8695030,"479,000 SF re-use mixed-use complex with hospitality, commercial, residential, public high school, parking",The Krog Group,$90.0,2018,Under,Krog,#009770
01-Medical Campus,YES,26,Salvation Army/EPIC buildings,954 Main St.,Buffalo,NY,42.9003120,-78.8702380,"Mixed used, medical offices",Ciminelli Real Estate Corp.,$90.0,2018,Z-Proposed,BUDC,#53578F
01-Medical Campus,YES,27,33 High Street,33 High St.,Buffalo,NY,42.9001240,-78.8681030,TBD,Ciminelli Real Estate Corp.,$119.0,2018,Z-Proposed,Ciminelli Real Estate Corp.,#53578F
01-Medical Campus,YES,28,201 Ellicott Street,201 Ellicott St.,Buffalo,NY,42.8843660,-78.8717430,Residential/mixed use complex,"Ciminelli Real Estate Corp., LPCiminelli Inc., Cannon Design",$78.0,2018,Z-Proposed,Ciminelli Real Estate Corp.,#53578F
02-Central Business,YES,1,Buffalo Club,388 Delaware Ave.,Buffalo,NY,42.8950120,-78.8762070,"Expansion for locker rooms, meeting space, fitness space, guest rooms and pool renovations","HHL Architects, Lehigh Construction",$9.0,2014,Completed,HHL Architects,#CA6266
02-Central Business,YES,2,Evergreen Lofts,392 Genesee St.,Buffalo,NY,42.8936680,-78.8608480,"Renovate vacant industrial building into 56 apartments for low-income, at risk residents",LPCiminelli Inc.,$16.5,2016,Completed,Tracey,#CA6266
02-Central Business,YES,3,250 Delaware,250 Delaware Ave.,Buffalo,NY,42.8911050,-78.8769630,"Construction of 330,000 SF, 12-story mixed use building, 5-level parking ramp for Delaware North and Westin Hotel",Uniland Development Co.,$117.0,2016,Completed,ECIDA.Uniland,#CA6266
02-Central Business,YES,4,Evergreen Health Services,166 W. Chippewa St.,Buffalo,NY,42.8909000,-78.8790390,"33,000 SF expansion ",LPCiminelli Inc.,$12.1,2016,Completed,"Tracey, LPCiminelli",#CA6266
02-Central Business,YES,5,Catholic Health headquarters,144 Genesee St.,Buffalo,NY,42.8908160,-78.8681440,"140,000 SF headquarters and training center","Uniland Development Co., Stieglitz Snyder Architecture",$46.0,2015,Completed,"ECIDA, Jim",#CA6266
02-Central Business,YES,6,Genesee Gateway,109 E. Genesee St.,Buffalo,NY,42.8895490,-78.8697030,"Offices, restaurant, apartments","Doug Swift, Bill Jones",$13.0,2013,Completed,"Jim, mayor",#CA6266
02-Central Business,YES,7,Hyatt Regency Buffalo,2 Fountain Plaza,Buffalo,NY,42.8879850,-78.8742680,Renovations of 396 rooms and penthouse addition,,$13.0,2014,Completed,Jim,#CA6266
02-Central Business,YES,8,"Sinclair, The",465 Washington St.,Buffalo,NY,42.8867580,-78.8724840,"Renovation of 86,000 SF building into 45 apartments, mixed use","Ciminelli Real Estate Corp., SM Hayes",$15.0,2016,Completed,"Jim, Ciminelli Real Estate",#CA6266
02-Central Business,YES,9,"Antonio, The Phase 2",456 Main St.,Buffalo,NY,42.8865540,-78.8747420,Mixed use redevelopment,Ellicott Development,$11.3,2014,Completed,Mayor,#CA6266
02-Central Business,YES,10,10 Lafayette Building,Lafayette Square,Buffalo,NY,42.8860410,-78.8736770,"124- room Hilton Garden Inn, 24 apartments, offices for Hamister Group LLC; renovation of Tishman Building","R&P OakHill, Hamister Group LLC, Carmina Woods Morris",$42.0,2014,Completed,Bricks 2015,#CA6266
02-Central Business,YES,11,50 Court ,50 Court St.,Buffalo,NY,42.8857430,-78.8763050,Mixed use,Ellicott Development,$30.0,2015,Completed,ECIDA,#CA6266
02-Central Business,YES,12,Compass East,425 Michigan Ave.,Buffalo,NY,42.8834120,-78.8660990,Renovation of former hospital into Class A and STEM facility,"McGuire Development Co., R&P Oak Hill, Carmina Woods",$20.0,2014,Completed,ECIDA/McGuire,#CA6266
02-Central Business,YES,13,ECC City Campus,121 Ellicott St.,Buffalo,NY,42.8817700,-78.8726090,Exterior refurbishment of main building,Picone Construction,$10.0,2013,Completed,Bricks 2014,#CA6266
02-Central Business,YES,14,Lofts at Pearl,90-92 Pearl St.,Buffalo,NY,42.8814990,-78.8772990,"Webb Building, boutique hotel","Earl Ketry, Rocco Termini",$13.0,2013,Completed,Jim,#CA6266
02-Central Business,YES,15,Apartments @ The Hub,149 Swan St.,Buffalo,NY,42.8805810,-78.8700190,"80,000 SF historic adaptive mixed reuse","Schneider Development LLC, R&P Oak Hill",$14.0,2014,Completed,Bricks 2015,#CA6266
02-Central Business,YES,16,IBM Buffalo Innovation Center,Key Towers,Buffalo,NY,42.8898220,-78.8736230,Technology center,"McGuire Development Co., Fort Schuyler Management Corp.",$55.0,2016,Under,"Jim, Empire State Dev",#009770
02-Central Business,YES,17,Curtiss Building,204-216 Franklin St.,Buffalo,NY,42.8893730,-78.8755510,"Renovation of office building into hotel, restaurant ",Mark Croce,$20.0,2016,Under,"ECIDA, Jim",#009770
02-Central Business,YES,18,Cars Sharing Main Street,Main Street,Buffalo,NY,42.8877860,-78.8736340,Returning two-lanes of vehicular traffic to downtown Main Street,"NFTA, Mark Cerrone Inc.",$43.3,2018,Under,Jim,#009770
02-Central Business,YES,19,AM&As flagship store,377 Main St.,Buffalo,NY,42.8845360,-78.8741840,"Repurpose 400,000 SF department store into 350-room Wyndham Hotel",Landco H&L ,$70.0,2017,Under,Jim,#009770
02-Central Business,YES,20,M&T Bank,"Main Street, ",Buffalo,NY,42.8837530,-78.8742990,Building upgrades at 12 M&T facilities totaling 1.5 million SF ,M&T Bank,$100.0,2017,Under,Allissa,#009770
02-Central Business,YES,21,"Glenny, The",251 Main St.,Buffalo,NY,42.8811170,-78.8752910,"Renovation of 46,000 Sf building into apartments, offices","Paul Kolkmeyer, Andrew Shaevel, Ronald Toski",$9.0,2016,Under,Jim,#009770
02-Central Business,YES,22,Marin Building,237 Main St.,Buffalo,NY,42.8807180,-78.8756520,"36 apartments, offices, 50 condos, boutique hotel, banquet center","Paul Kolkmeyer, Andrew Shaevel, Ronald Toski",$27.0,2016,Under,Jim,#009770
02-Central Business,YES,23,Buffalo Christian Center,512 Pearl St.,Buffalo,NY,42.8934380,-78.8733860,"Repurpose building including construction of 12-story, 300,000 SF  tower",Ellicott Development Co.,$75.0,2018,Z-Proposed,Jim,#53578F
02-Central Business,YES,24,Uniland spec building,505 Ellicott St.,Buffalo,NY,42.8921810,-78.8694990,Renovation of Frey the Wheelman building,Uniland Development Co.,$13.0,2017,Z-Proposed,Jim/Uniland,#53578F
02-Central Business,YES,25,Market Arcade Cinemas,639 Main St.,Buffalo,NY,42.8911680,-78.8719800,Renovation of eight-screen theater,"Benchmark Group, AMC Theaters",$9.0,2018,Z-Proposed,Jim,#53578F
02-Central Business,YES,26,Livery building,73 W. Huron St.,Buffalo,NY,42.8892860,-78.8762490,Mixed use,"Mark Croce, Jim Jerge",$12.0,2018,Z-Proposed,"Jim, BUDC",#53578F
02-Central Business,YES,27,Statler City,Delaware Ave.,Buffalo,NY,42.8873770,-78.8773890,Mixed use,Statler City LLC,$80.0,2018,Z-Proposed,Jim,#53578F
02-Central Business,YES,28,"Carlo, The",20 Wilkenson Way,Buffalo,NY,42.8798130,-78.8840110,"Offices, hotel, apartments",Ellicott Development Co.,$90.0,2018,Z-Proposed,"Jim, mayor,Ellicott Dev",#53578F
03-Cobblestone,YES,1,Buffalo Transportation/Pierce Arrow Museum,263 Michigan Ave.,Buffalo,NY,42.8789470,-78.8693210,Museum,Jim Sandoro,$7.5,2013,Completed,,#CA6266
03-Cobblestone,YES,2,One Canalside ,125 Main St.,Buffalo,NY,42.8781680,-78.8762890,"Phillips Lytle LLP offices, Courtyard by Marriott",Benderson Development Co. LLC,$42.4,2013,Completed,Bricks 2014,#CA6266
03-Cobblestone,YES,3,Ice at Canalside,Canalside,Buffalo,NY,42.8781160,-78.8778390,Replica of Erie Canal,"ECHDC, Pike Development",$23.0,2014,Completed,,#CA6266
03-Cobblestone,YES,4,East Canal Urban Park,Canalside ,Buffalo,NY,42.8774710,-78.8764340,recreation/retail,ECHDC,$8.0,2014,Completed,,#CA6266
03-Cobblestone,YES,5,716 Food and Sport,7 Scott St.,Buffalo,NY,42.8771820,-78.8769350,Restaurant and bar in HarborCenter,"Mortenson Construction, BHNT Architects PC",$8.0,2014,Completed,Bricks 2015,#CA6266
03-Cobblestone,YES,6,HarborCenter,75 Main St.,Buffalo,NY,42.8765550,-78.8767540,"Buffalo Sabres, Buffalo Niagara Marriott",Buffalo Sabres,$250.0,2015,Completed,"ECIDA, Jim",#CA6266
03-Cobblestone,YES,7,HSBC Atrium,Washington Street,Buffalo,NY,42.8764490,-78.8758120,Renovation of office building,HSBC Bank NA USA,$17.5,2014,Completed,,#CA6266
03-Cobblestone,YES,8,"Fairmont Creamery, The",199 Scott St.,Buffalo,NY,42.8755980,-78.8692620,"Renovation of 126,000 SF, 8-story building ",Ellicott Development,$14.6,2014,Completed,Bricks 2015,#CA6266
03-Cobblestone,YES,9,Liazon,199 Scott St.,Buffalo,NY,42.8755980,-78.8692620,Renovations of 6-8th floors ,"Ellicott Development, Silvestri Architects",$2.3,2015,Completed,"Bricks 2015, Silvestri",#CA6266
03-Cobblestone,YES,10,Buffalo Sabres Suites,First Niagara Center,Buffalo,NY,42.8750000,-78.8764820,Renovation of 80 suites ,Buffalo Sabres,$10.0,2015,Completed,Jim,#CA6266
03-Cobblestone,YES,11,Buffalo Iron Works,49 Illinois St.,Buffalo,NY,42.8745270,-78.8747340,Nightclub,Savarino Cos. LLC,$1.0,2013,Completed,Bricks 2014,#CA6266
03-Cobblestone,YES,12,Seneca Buffalo Creek Casino,1 Fulton St.,Buffalo,NY,42.8737690,-78.8698030,"67,000 SF casino",Seneca Construction Management Corp.,$130.0,2013,Completed,Bricks 2014,#CA6266
03-Cobblestone,YES,13,Seneca Buffalo Creek Casino park+B637ing garage,1 Fulton St.,Buffalo,NY,42.8737690,-78.8698030,"743-car, 4-floor parking garage","Seneca Gaming Corp., LPCiminelli Inc.",$9.3,2013,Completed,LPCiminelli Inc.,#CA6266
03-Cobblestone,YES,14,Connecting Terminal permanent lightin installation ,32 Fuhrmann Blvd.,Buffalo,NY,42.8737540,-78.8810910,Lighting of waterfront grain mill,"Hohl Industrial Services, Frey Electric Construction Co., Foit-Albert Associates",$3.3,2015,Completed,"Jim, Bricks 2016",#CA6266
03-Cobblestone,YES,15,Lockhouse Distillery,41 Columbia St.,Buffalo,NY,42.8735040,-78.8723230,,Ellicott Development Co.,$1.2,2015,Completed,Ellicott Dev,#CA6266
03-Cobblestone,YES,16,Riverfest Pavilion,Ohio Street,Buffalo,NY,42.8702140,-78.8701900,"5,000 SF restaurant, meeting facility ",Trautman Associates,$2.4,2015,Completed,Trautman,#CA6266
03-Cobblestone,YES,17,Central Wharf extension,,Buffalo,NY,"42.875210,",-78.8784870,"Addition of 500 linear feet to existing Central Wharf boardwalk, other upgrades","Erie Canal Harbor Development Corp., Scott Lawn Yard",$2.2,2016,Under,Jim,#009770
03-Cobblestone,YES,18,Coca Cola Field,One James Griffin Plaza,Buffalo,NY,42.8804730,-78.8737570,First phase of ballpark renovations,Buffalo Bisons,$4.0,2016,Under,Jim,#009770
03-Cobblestone,YES,19,192 Seneca,192 Seneca St.,Buffalo,NY,42.8796290,-78.8690980,Mixed use,Ellicott Development Co.,$4.4,2017,Under,Ellicott Dev,#009770
03-Cobblestone,YES,20,Hatch restaurant expansion,Erie Basin Marina,Buffalo,NY,42.8789470,-78.8876830,"3,000 SF, 80-seat expansion",Molly Koessler,$1.0,2016,Under,Jim,#009770
03-Cobblestone,YES,21,Buffalo Transportation/Pierce Arrow Museum,264 Michigan Ave.,Buffalo,NY,42.8788190,-78.8699110,"300,000 SF addition ",Jim Sandoro,$10.0,2016,Under,Buffalo,#009770
03-Cobblestone,YES,22,Elk Terminal Lofts,230 Scott St.,Buffalo,NY,42.8749880,-78.8676760,23-apartment expansion to Elk Terminal Lofts,First Amherst Development Group,$5.0,2016,Under,Jim,#009770
03-Cobblestone,YES,23,Seneca Buffalo Creek Casino,1 Fulton St.,Buffalo,NY,42.8737690,-78.8698030,Expansion to include new gaming and restaurant space,Seneca Construction Management Corp.,$40.0,2017,Under,Senecas,#009770
03-Cobblestone,YES,24,Lakefront Boulevard,240 Lakefront Boulevard,Buffalo,NY,42.8835330,-78.8839160,Residential complex,"Ciminelli Real Estate Corp., Carmina Wood Morris",$25.0,2018,Z-Proposed,"Jim, Ciminelli Real Estate",#53578F
03-Cobblestone,YES,25,270 Michigan,270 Michigan Ave.,Buffalo,NY,42.8793110,-78.8703950,Mixed use,Ellicott Development Co.,$5.0,2018,Z-Proposed,Ellicott Dev,#53578F
03-Cobblestone,YES,26,Railroad Short Line,Starting at Buffalo Transportation Museum,Buffalo,NY,42.8790910,-78.8687090,Tourism-based historic rail line,Jim Sandoro,$4.0,Z-Proposed,Z-Proposed,Jim,#53578F
03-Cobblestone,YES,27,Aud Block,Main and Lower Terrace,Buffalo,NY,42.8787110,-78.8772120,Canalside development site,Erie Canal Harbor Development Corp.,$21.0,2018,Z-Proposed,NYS,#53578F
03-Cobblestone,YES,28,Explore & More,***,Buffalo,NY,42.8783970,-78.8772980,"Four-story 43,000 SF museum",,$17.0,2018,Z-Proposed,"Jim, Mayor",#53578F
03-Cobblestone,YES,29,Scott Street Building,Scott and Washington Streets,Buffalo,NY,42.8773800,-78.8765230,4-story mixed use,Benderson Development Co. LLC,$10.0,Z-Proposed,Z-Proposed,Jim,#53578F
04-East Side,YES,1,Buffalo Public School 79,225 Lawn Ave.,Buffalo,NY,42.9505710,-78.8890200,"Roof, envelope upgrades","Kideney Architects, Spicer Group",$3.0,2014,Completed,Kideney,#CA6266
04-East Side,YES,2,Terrace View Long Term Facility,462 Grider St.,Buffalo,NY,42.9254230,-78.8313320,County nursing home on ECMC campus,"LPCiminelli Inc.,Cannon Design",$103.0,2013,Completed,Bricks 2014,#CA6266
04-East Side,YES,3,ECMC Behavioral Health Center of Excellence,462 Grider St.,Buffalo,NY,42.9254230,-78.8313320,"Expansion of emergency behavioral health facilities to 18,000 SF",LPCiminelli Inc.,$25.0,2014,Completed,Bricks 2015,#CA6266
04-East Side,YES,4,ECMC Ambulatory Surgery Center,462 Grider St.,Buffalo,NY,42.9254230,-78.8313320,"30,200 SF","LPCiminelli Inc., Kideney Architects",$15.0,2014,Completed,Kideney,#CA6266
04-East Side,YES,5,ECMC Russell J. Salvatore Orthopaedic Unit,462 Grider St.,Buffalo,NY,42.9254230,-78.8313320,"20,000 SF, 22 single-patient rooms","LPCiminelli Inc., Kideney Architects",$9.1,2015,Completed,Kideney,#CA6266
04-East Side,YES,6,ECMC Comprehensive Oncology Unit,462 Grider St.,Buffalo,NY,42.9254230,-78.8313320,"25,000 SF, 6 exam room, 2 procedure rooms","LPCiminelli Inc., Kideney Architects",$4.0,2014,Completed,Kideney,#CA6266
04-East Side,YES,7,ECMC Medical Office Space,462 Grider St.,Buffalo,NY,42.9254230,-78.8313320,"25,000 SF","LPCiminelli Inc., Kideney Architects",$4.0,2014,Completed,Kideney,#CA6266
04-East Side,YES,8,Canisius College Interdisciplinary Science Building,1901 Main St.,Buffalo,NY,42.9236720,-78.8550310,Renovation of former Sears store into science/technology center,"Uniland Development, Cannon Design",$24.0,2013,Completed,Bricks 2014,#CA6266
04-East Side,YES,9,OCS Manufacturing & Equipment Services Inc.,1001 E. Delavan Ave.,Buffalo,NY,42.9197690,-78.8199280,Steel manufacturing plant on site of American Axle plant,Ontario Specialty Contracting,$17.5,2014,Completed,Jim,#CA6266
04-East Side,YES,10,Bellamy Commons,1490 Jefferson Ave.,Buffalo,NY,42.9160120,-78.8545680,"30 living units, community center, commercial space","CSS Construction, Belmont Housing Resource for WNY",$6.0,2016,Completed,CSS Construction,#CA6266
04-East Side,YES,11,True Bethel Apartments,858 E. Ferry Ave.,Buffalo,NY,42.9150260,-78.8307540,30-unit townhome project and community center,"CSS Construction, Belmont Housing Resource for WNY",$6.0,2015,Completed,CSS Construction,#CA6266
04-East Side,YES,12,True Bethel Senior,907 E. Ferry Ave.,Buffalo,NY,42.9138770,-78.8301690,50 senior units and community center,"CSS Construction, Belmont Housing Resource for WNY",$5.0,2014,Completed,CSS Construction,#CA6266
04-East Side,YES,13,BPS 99-Stanley Makowski Early Childhood Center,1095 Jefferson Ave.,Buffalo,NY,42.9045190,-78.8528800,Renovations to school,"Kideney Architects, Picone Construction",$2.9,2015,Completed,Bricks 2016,#CA6266
04-East Side,YES,14,Hope Gardens ,58 Oberlin St.,Buffalo,NY,42.9009040,-78.8252300,20-unit housing for homeless women,"Lt. Col. Matt Urban Human Services Center, Savarino Cos.",$5.6,2014,Completed,Bricks 2015,#CA6266
04-East Side,YES,15,Erie County Medical Mall,1500 Broadway,Buffalo,NY,42.8965500,-78.8194140,"26,000 SF multi-tenant renovation","Telco,  Kideney Architects",$2.9,2014,Completed,Kideney,#CA6266
04-East Side,YES,16,American Douglas Metals Inc.,99 Bud Mill Drive,Buffalo,NY,42.8881530,-78.8174230,Company expansion,,$2.9,2014,Completed,ECIDA,#CA6266
04-East Side,YES,17,Gerard Place,2515 Bailey Ave.,Buffalo,NY,42.9232140,-78.8132580,Conversion of St. Gerard school building into a community learning center,Trautman Associates,$5.0,2017,Under,Trautman,#009770
04-East Side,YES,18,George Otis Bedding Co.,170 Florida St.,Buffalo,NY,42.9204950,-78.8526070,Repurpose factory into apartments and offices,Karl Frizlen,$6.0,2017,Under,Jim,#009770
04-East Side,YES,19,Northland Corridor Workforce Training Center,683 Northland Ave.,Buffalo,NY,42.9182850,-78.8361430,"Adaptive re-use of 50-acre industrial site for variety of training programs, primarily for manufacturing sector",Empire State Development Corp.,$44.0,2017,Under,"Jim, BURA",#009770
04-East Side,YES,20,Saving Grace Gateway Apartments,347 E. Ferry St.,Buffalo,NY,42.9146270,-78.8512540,16 affordable housing units in former YMCA building,Saving Grace Ministries Inc.,$2.9,2016,Under,Buffalo,#009770
04-East Side,YES,21,W.S. Hein Publishing building,1285 Main St.,Buffalo,NY,42.9084600,-78.8662000,Renovations for ECMC chemical dependency unit,Ellicott Development,$8.0,2016,Under,BUDC,#009770
04-East Side,YES,22,Central Terminal,495 Paderewski Drive,Buffalo,NY,42.8895590,-78.8309160,Renovation of historic rail terminal,Central Terminal Restoration Corp.,$56.0,2018,Under,Bricks 2012,#009770
04-East Side,YES,23,Sisters of Charity Hospital,2157 Main St.,Buffalo,NY,42.9285470,-78.8486210,Neonatal ICU relocation,Catholic Health,$7.7,2018,Z-Proposed,Catholic Health,#53578F
04-East Side,YES,24,Jefferson Apartments,1160 Jefferson Ave.,Buffalo,NY,42.9060120,-78.8542010,"84 mixed-income residential, 10,000 SF commercial space","CSS Construction, People Inc., Sinatra and Company",$20.0,2019,Z-Proposed,Sinatra,#53578F
05-West Side,YES,1,789 Tonawanda,789 Tonawanda St.,Buffalo,NY,42.9502690,-78.9037100,Mixed use,Ellicott Development Co.,$5.2,2016,Completed,Ellicott Dev,#CA6266
05-West Side,YES,2,Frederick Law Olmsted School 64,874 Amherst St.,Buffalo,NY,42.9411830,-78.8716400,"30,000 addition and renovations",LPCiminelli Inc.,$16.8,2013,Completed,Bricks 2014,#CA6266
05-West Side,YES,3,Tops Markets LLC,345 Amherst St.,Buffalo,NY,42.9363910,-78.8914320,Supermarket renovations,"Benderson Development Co. LLC, Concept Construction",$1.3,2014,Completed,Jim,#CA6266
05-West Side,YES,4,"SUNY Buffalo State Science and Mathematics Complex, Phase 2",1300 Elmwood Ave.,Buffalo,NY,42.9322950,-78.8795700,Renovations to north wing for classrooms and office for science departments,"LPCiminelli Inc., Cannon Design, Turner Construction",$20.0,2015,Completed,LPCiminelli Inc.,#CA6266
05-West Side,YES,5,SUNY Buffalo State renovation of Tower 1,1300 Elmwood Ave.,Buffalo,NY,42.9322950,-78.8795700,Renovation of 204-bed residence hall,LPCiminelli Inc.,$10.0,2015,Completed,LPCiminelli Inc.,#CA6266
05-West Side,YES,6,Forest Lawn Margaret L. Wendt Archive and Resource Center,1411 Delaware Ave.,Buffalo,NY,42.9251540,-78.8628030,Archival resource building,R&P Oak Hill Development LLC,$2.0,2014,Completed,Jim,#CA6266
05-West Side,YES,7,Rich Products Corp. Bakery Production Training Labs,1 Robert Rich Way,Buffalo,NY,42.9145840,-78.8985270,"25,000 SF renovation",Cannon,$5.0,2016,Completed,Cannon,#CA6266
05-West Side,YES,8,Peace Bridge U.S. Customs Commercial Warehouse ,1 Peace Bridge Plaza,Buffalo,NY,42.9036010,-78.8980450,"Renovation of 23,500 SF warehouse and 20,000 SF annex; 23,600 SF, 2-story addition ","LPCiminelli Inc., Wendel",$24.0,2016,Completed,"Wendel, Pciminelli",#CA6266
05-West Side,YES,9,Grace Manor,10 Symphony Circle,Buffalo,NY,42.9016820,-78.8813320,"Mixed used, residential, commercial",Ellicott Development,$9.0,2014,Completed,Ellicott Dev,#CA6266
05-West Side,YES,10,D'Youville College School of Arts Science & Education,605 Niagara St.,Buffalo,NY,42.9002560,-78.8911840,"85,000 SF schools of arts, science and education, former Gateway-Longview complex",Uniland Development Co.,$25.0,2015,Completed,"Uniland, Bricks 2016",#CA6266
05-West Side,YES,11,Turner Brothers Lofts,295 Niagara St.,Buffalo,NY,42.8926550,-78.8835480,"50,000 SF historic adaptive mixed reuse","Schneider Development LLC, R&P Oak Hill",$11.7,2016,Completed,"Jim, ECIDA",#CA6266
05-West Side,YES,12,155 Chandler,155 Chandler St.,Buffalo,NY,42.9428550,-78.8854050,Conversion of warehouse into business incubator,"Rocco Termini, Michael Shatzel",$10.0,2017,Under,Jim/Buffalo Planning Board,#009770
05-West Side,YES,13,Albright-Knox Art Gallery expansion,1285 Elmwood Ave.,Buffalo,NY,42.9322970,-78.8756000,"50,000 SF addition to art museum",Office for Metropolitan Architecture,$80.0,2018,Under,Jim,#009770
05-West Side,YES,14,"SUNY Buffalo State Science and Mathematics Complex, Phase 3",1300 Elmwood Ave.,Buffalo,NY,42.9322950,-78.8795700,Phase 3,Turner Construction Co.,$27.0,2018,Under,Turner,#009770
05-West Side,YES,15,Campus Walk One Student Apartments,643 Grant St.,Buffalo,NY,42.9315860,-78.8886460,"2 new buildings, 318 beds","Greenleaf Development, LPCiminelli, Kideney Architects",$21.0,2017,Under,"Jim, Kideney",#009770
05-West Side,YES,16,Richardson Olmsted Complex,400 Forest Ave.,Buffalo,NY,42.9291140,-78.8802020,"Adapative reuse of Buffalo Psychiatric Center into hotel, conference center","LPCiminelli Inc., Flynn Battaglia Architects",$56.4,2016,Under,Jim,#009770
05-West Side,YES,17,One Hundred at Forest,100 Forest Avenue,Buffalo,NY,42.9289370,-78.8942270,10-building complex on Westwood property to house up to 592 SUNY Buffalo State students,DHD Ventures,$25.0,2017,Under,Jim,#009770
05-West Side,YES,18,The Mentholatum,1360 Niagara St.,Buffalo,NY,42.9213150,-78.8990650,Repurpose manufacturing plant into residential and retail use,"Ciminelli Real Estate Corp., SM Hayes",$15.0,2017,Under,"Ciminelli, Jim",#009770
05-West Side,YES,19,Canterbury Woods Gates Circle,50 Gates Circle,Buffalo,NY,42.9211200,-78.8667360,"Continuing care retirement community, 53 independent living apartments","TM Montante Development LLC, Episcopal Church Home & Affiliates",$42.0,2017,Under,"TM Montante, Pantano",#009770
05-West Side,YES,20,MidCity Apartments,1665 Main St.,Buffalo,NY,42.9179760,-78.8612080,"55 apartments, commercial, office space","Sinatra & Co., SLR Contracting",$10.0,2018,Under,Sinatra,#009770
05-West Side,YES,21,1661 Main,1661 Main St.,Buffalo,NY,42.9179450,-78.8611810,"Renovation, commercial space, 55 apartments",Sinatra & Co.,$10.0,2017,Under,Mayor,#009770
05-West Side,YES,22,WestMont Living,291 North St.,Buffalo,NY,42.9023070,-78.8803190,Conversion of Nazareth Home of the Franciscan Sisters to independent senior living facility,Ellicott Development Co.,$33.0,2017,Under,Ellicott Dev,#009770
05-West Side,YES,23,Shoreline Apartments,200 Niagara St.,Buffalo,NY,42.8898890,-78.8823140,Renovation,Norstar Development USA LLP,$30.0,2016,Under,"Jim, Mayor",#009770
05-West Side,YES,24,Elmwood Forest Gateway,1111 Elmwood Ave.,Buffalo,NY,42.9275240,-78.8764060,57 townhouses,"Chason Affinity, Carmina Wood Morris ",$30.0,2018,Z-Proposed,Carmina Wod,#53578F
05-West Side,YES,25,Elmwood Bidwell,1010 Elmwood Ave.,Buffalo,NY,42.9247170,-78.8773380,Residential/mixed use complex,Ciminelli Real Estate Corp.,$40.0,2018,Z-Proposed,Ciminelli Real Estate Corp.,#53578F
05-West Side,YES,26,33 Gates Circle,33 Gates Circle,Buffalo,NY,42.9201480,-78.8693990,Condos proposed for former Park Lane site,Uniland Development Co.,$65.0,2018,Z-Proposed,Uniland,#53578F
05-West Side,YES,27,"Gates Circle Redevelopment Project, phase 2",Gates Circle and Delaware Avenue,Buffalo,NY,42.9200620,-78.8671540,"Mixed use, residential, retail, commercial",TM Montante Development LLC,$110.0,2017,Z-Proposed,TM Montante,#53578F
05-West Side,YES,28,QueensLight,219 Bryant St.,Buffalo,NY,42.9094230,-78.8753830,Reuse of Women & Children's Hospital of Buffalo,"Ciminelli Real Estate Corp., LPCiminelli Inc., Cannon Design",$122.0,2018,Z-Proposed,Ciminelli Real Estate Corp.,#53578F
06-North Buffalo,YES,1,Buffalo Public School 65,249 Skillen St.,Buffalo,NY,42.9601420,-78.8958380,"Renovation of gym, cafeteria, exterior",LPCiminelli Inc.,$9.7,2013,Completed,Bricks 2014,#CA6266
06-North Buffalo,YES,2,Kapoor Hall-UB South,,Buffalo,NY,42.9566160,-78.8203630,Pharmacy School,SUNY,$55.0,2014,Completed,,#CA6266
06-North Buffalo,YES,3,UB Hayes Hall Restoration,3435 Main Street,Buffalo,NY,42.9533590,-78.8182510,"Interior restoration of 82,000 SF building for School of Architecture and Planning","LeChase Construction Services LLC, LPCiminelli Inc.",$45.0,2015,Completed,Bricks 2016,#CA6266
06-North Buffalo,YES,4,VA WNY Health Care ,3495 Bailey Ave.,Buffalo,NY,42.9512700,-78.8121950,Hospital renovations,,$18.6,2014,Completed,,#CA6266
06-North Buffalo,YES,5,Charter Middle School for Applied Technologies,24 Shoshone St.,Buffalo,NY,42.9480120,-78.8356740,Redevelopment of Holy Angels Academy,McGuire Development Co.,$5.0,2014,Completed,Bricks 2015,#CA6266
06-North Buffalo,YES,6,Deep South Taco,1707 Hertel Ave.,Buffalo,NY,42.9473650,-78.8445320,Mexican-themed restaurant,"Richard Hamilton, Lamparelli Construction Co. Inc.",$1.8,2016,Completed,Jim,#CA6266
06-North Buffalo,YES,7,1685 Hertel Ave.,1685 Hertel Ave.,Buffalo,NY,42.9472800,-78.8456930,"New construction, 16 apartments, retail",Frizlen Group,$3.0,2015,Completed,"Mayor, Jim",#CA6266
06-North Buffalo,YES,8,Jasper Parrish Rehab,4 Jasper Parrish,Buffalo,NY,42.9468660,-78.8888720,Exterior upgrade at 33 rowhouses,"Kideney, Allstate",$4.2,2015,Completed,,#CA6266
06-North Buffalo,YES,9,Arco Lofts,1807 Elmwood Ave.,Buffalo,NY,42.9460920,-78.8775450,"Renovation of 45,000 SF building into apartments",Signature Development,$12.4,2015,Completed,"ECIDA, Jim, Rocco Termini",#CA6266
06-North Buffalo,YES,10,Buffalo Foundry The,1738 Elmwood Ave.,Buffalo,NY,42.9446690,-78.8791090,"Renovation of Taylor Signal Co. building into offices, apartments, boutique hotel and banquet facility","Signature Development, Rocco Termini, ENRG LLC",$18.0,2014,Completed,Bricks 2015,#CA6266
06-North Buffalo,YES,11,Foundry Lofts,1738 Elmwood Ave.,Buffalo,NY,42.9446690,-78.8791090,Adaptive reuse of former FWS Building into apartments and hotel,Signature Development,$18.0,2014,Completed,Bricks 2015,#CA6266
06-North Buffalo,YES,12,Bethune  Lofts,2917 Main St.,Buffalo,NY,42.9441550,-78.8307970,Conversion of industrial building into 87 apartments,"Ciminelli Real Estate Corp., LPCiminelli Inc.",$19.0,2013,Completed,Bricks 2014/Ciminelli,#CA6266
06-North Buffalo,YES,13,Houk Lofts,320 Grote St.,Buffalo,NY,42.9422630,-78.8796520,"Renovated Houk Wire Wheel building, 22 residential units","Signature Development, ENRG",$6.7,2014,Completed,"Bricks 2014, ECIDA",#CA6266
06-North Buffalo,YES,14,Buffalo Zoo/Arctic Edge,300 Parkside Avenue,Buffalo,NY,42.9383690,-78.8509910,"New exhibit for polar bears, Arctic wolves, bald eagles, Canadian Lynx",Foit-Albert Associates,$14.5,2015,Completed,,#CA6266
06-North Buffalo,YES,15,Buffalo Zoo Entry Complex,300 Parkside Avenue,Buffalo,NY,42.9383690,-78.8509910,"New entrance/restrooms, gift shop","Kirst Construction, Foit-Albert Associates",$3.1,2013,Completed,Bricks 2014,#CA6266
06-North Buffalo,YES,16,Daemen College/Visual Effects Capital,2495 Main St.,Buffalo,NY,42.9346780,-78.8423610,"16,000 SF theater, film and TV post-production facility",Tri-Main Development LLC,$2.2,2015,Completed,Dan,#CA6266
06-North Buffalo,YES,17,Uncle Bob's Self Storage,400 Kenmore Ave.,Buffalo,NY,42.9579280,-78.8350280,Conversion of former supermarket ,Joseph Dash,$2.0,2016,Under,Jim,#009770
06-North Buffalo,YES,18,St. Rose of Lima School,500 Parker Ave.,Buffalo,NY,42.9527960,-78.8392690,Conversion to 21 apartments,The Frizlen Group,$4.0,2016,Under,Jim,#009770
06-North Buffalo,YES,19,VA WNY Health Care ,3495 Bailey Ave.,Buffalo,NY,42.9512700,-78.8121950,"Hospital surgery consolidation, 9,000 SF renovation, 9,000 SF addition",Kideney Architects,$10.0,2018,Under,Kideney,#009770
06-North Buffalo,YES,20,Bell Tower Lofts,Colvin and Tacoma avenues,Buffalo,NY,42.9512680,-78.8584450,29-unit apartment complex,Apollo Dismantling Services Inc.,$3.0,2016,Under,Jim,#009770
06-North Buffalo,YES,21,Lexington Co-Op,1678 Hertel Ave.,Buffalo,NY,42.9479550,-78.8459680,"Renovate CVS store into second 14,000 SF store",,$2.0,2016,Under,Jim,#009770
06-North Buffalo,YES,22,Lofts at University Heights,120 Minnesota Ave.,Buffalo,NY,42.9472380,-78.8248170,Conversion of BPS 63 into 45 apartments,"Watts Architecture & Engineering, CB Emmanuel Realty LLC, Carmind Wood Morris",$10.5,2016,Under,Watts Architecture,#009770
06-North Buffalo,YES,23,St. Margaret's Church,1391 Hertel Ave.,Buffalo,NY,42.9468150,-78.8566910,Apartments,Iskalo Development Corp.,$5.4,2016,Under,ECIDA,#009770
06-North Buffalo,YES,24,Nardin Academy Sports Facility,1803 Elmwood Ave.,Buffalo,NY,42.9457170,-78.8729600,"8 squash courts, indoor soccer and sports practice facility","Schneider Design Architects, R&P Oak Hill",$2.0,2016,Under,Jim,#009770
06-North Buffalo,YES,25,Pierce-Arrow Lofts,1695 Elmwood Ave.,Buffalo,NY,42.9429800,-78.8783250,"Renovate former automobile manufacturing plant, 105 apartments",Flynn Battaglia Architects,$30.0,2018,Under,Jim,#009770
06-North Buffalo,YES,26,Barton House restoration,118 Summit Ave.,Buffalo,NY,42.9365690,-78.8477570,Restoration on Darwin Martin House complex,HHL Architects,$1.0,2016,Under,HHL Architects,#009770
06-North Buffalo,YES,27,Darwin Martin House restoration,125 Jewett Parkway,Buffalo,NY,42.9361240,-78.8480330,Fifth of multi-phase 20-year long restoration ,"HHL Architects, LPCiminelli Inc.",$3.0,2016,Under,HHL Architects,#009770
06-North Buffalo,YES,28,Highland Park Village,2421 Main St.,Buffalo,NY,42.9342660,-78.8437540,Phased residential development of Central Park Plaza,LPCiminelli Inc.,$72.0,2017,Under,"Jim, LPCiminelli Inc.",#009770
06-North Buffalo,YES,29,Kensington Garden,240 Kensington Ave.,Buffalo,NY,42.9289760,-78.8418590,Three-story 40-unit senior housing facility,Sinatra,$5.2,2018,Under,Sinatra,#009770
06-North Buffalo,YES,30,Former North Park Library,Delaware and Hertel avenues,Buffalo,NY,42.9481290,-78.8679570,"demolition, retail development",Benderson Development,$2.0,2018,Z-Proposed,Jim,#53578F
07-South Buffalo,YES,1,132 Dingens,132 Dingens St.,Buffalo,NY,42.8788320,-78.8105520,"Constuct 86,000 SF warehouse ",Pinto Construction,$5.2,2016,Completed,Mayor,#CA6266
07-South Buffalo,YES,2,500 Seneca,500 Seneca St.,Buffalo,NY,42.8776870,-78.8570340,"Adaptive reuse of 325,000 SF building, office space, 110 lofts","Savarino Cos., Frontier Group of Companies",$40.0,2016,Completed,"Bricks 2016, Savarino",#CA6266
07-South Buffalo,YES,3,Seneca Lofts,550 Seneca St.,Buffalo,NY,42.8773930,-78.8555370,"41 apartments, indoor parking Daylit Warehouse building","Frontier Group of Companies, CSS Construction",$6.0,2015,Completed,Jim,#CA6266
07-South Buffalo,YES,4,837 Bailey,837 Bailey Ave.,Buffalo,NY,42.8769970,-78.8159380,Construct truck sale and service center,,$4.5,2016,Completed,Mayor,#CA6266
07-South Buffalo,YES,5,SelectOne Search,760 Seneca St.,Buffalo,NY,42.8765170,-78.8485080,Corporate headquarters,,$1.7,2016,Completed,ECIDA,#CA6266
07-South Buffalo,YES,6,Larkin Center of Commerce,701 Seneca Street,Buffalo,NY,42.8757890,-78.8517040,Office,Seneca Holdings LLC/Peter Krog,$50.0,2015,Completed,,#CA6266
07-South Buffalo,YES,7,Wilkeson Pointe Park,Fuhrman Blvd.,Buffalo,NY,42.8717510,-78.8821510,"Former NYPA Ice Boom field, 15 acres",ECHDC,$3.5,2013,Completed,Empire State,#CA6266
07-South Buffalo,YES,8,Buffalo Riverworks,339-389 Ganson St.,Buffalo,NY,42.8708240,-78.8733470,Multi-purpose sports and entertainment center,"Doug Swift, Earl Ketry, John Williams",$15.0,2015,Completed,Mayor,#CA6266
07-South Buffalo,YES,9,Ohio Street reconstruction,Ohio Street,Buffalo,NY,42.8707840,-78.8701380,1.4-mile stretch transformed from industrial route to pedestrian thoroughfare,"Federal Highway Administration, City of Buffalo",$11.4,2014,Completed,Jim,#CA6266
07-South Buffalo,YES,10,Cooperage,Chicago Street,Buffalo,NY,42.8697890,-78.8686170,Apartments ,,$6.6,2015,Completed,,#CA6266
07-South Buffalo,YES,11,301 Ohio ,301 Ohio St.,Buffalo,NY,42.8691580,-78.8690410,Apartments,Ellicott Development Co.,$9.0,2016,completed,Ellicott Dev,#CA6266
07-South Buffalo,YES,12,South Buffalo Charter School,154 S. Ogden St.,Buffalo,NY,42.8634770,-78.8052030,"100,000 SF charter school for 900 students in grades K-9",R&P Oak Hill Development,$24.0,2014,Completed,"Senecas, Cannon",#CA6266
07-South Buffalo,YES,13,Mutual Riverfront Park,41 Hamburg Street,Buffalo,NY,42.8633160,-78.8592570,recreation,,$2.0,2013,Completed,,#CA6266
07-South Buffalo,YES,14,Buffalo Harbor State Park Breakwall,1111 Fuhrmann Blvd.,Buffalo,NY,42.8510410,-78.8643910,Rehabilitation of break wall and rehabilitation of southern revetment,"NYS Parks, Scott Lawn Yard",$3.7,2016,Completed,NYS Parks,#CA6266
07-South Buffalo,YES,15,Alita USA Holdings Inc.,Rissling Blvd.,Buffalo,NY,42.8492820,-78.8367570,"Construction of 350,000 SF for steel production",Alita USA Holdings Inc.,$102.0,2015,Completed,Mayor,#CA6266
07-South Buffalo,YES,16,Mercy Hospital of Buffalo,565 Abbott Road,Buffalo,NY,42.8475500,-78.8125780,"Pre/post procedure holding expansion, cardiac OR, cath lab, Core Services-ICU expansion, electrical switchgear replacement, 2014-16","Telco Construction, Savarino Construction, O'Connell Elctric",$30.3,2016,Completed,Catholic Health,#CA6266
07-South Buffalo,YES,17,Tifft Street Pier,Tifft Street,Buffalo,NY,42.8393320,-78.8584820,Renovation of historic pier,Parsons Brinckerhoff,$4.0,2013,Completed,"Jim, press release",#CA6266
07-South Buffalo,YES,18,AP Lofts at Larkinville,545 Swan St.,Buffalo,NY,42.8779750,-78.8553490,Repurpose A&P warehouse into 146 apartment units,"KCG Development LLC, Carmina Wood & Morris",$39.0,2018,Under,Jim,#009770
07-South Buffalo,YES,19,Larkin Center of Commerce Power Plant,701 Seneca St.,Buffalo,NY,42.8757890,-78.8517040,Renovation of historic building,Seneca Larkin 701 LLC,$12.0,2016,Under,"ECIDA, BURA",#009770
07-South Buffalo,YES,20,Millrace Commons,725 Exchange St.,Buffalo,NY,42.8747680,-78.8511170,Office,Larkin Development,$10.0,2017,Under,,#009770
07-South Buffalo,YES,21,Outer Harbor Public Park,Fuhrman Blvd.,Buffalo,NY,42.8740730,-78.8831130,Public access waterfront park,Erie Canal Harbor Development Corp.,$5.0,2016,Under,,#009770
07-South Buffalo,YES,22,399 Ohio St.,399 Ohio St.,Buffalo,NY,42.8682740,-78.8692240,"New apartment building, 21 units, mixed use",Ellicott Development Co.,$4.5,2016,Under,Jim,#009770
07-South Buffalo,YES,23,Buffalo River Landing,1 South St.,Buffalo,NY,42.8653520,-78.8675630,Construction of 78 apartments and commercial space fronting Buffalo River,"Savarino Cos., Frontier Group of Companies",$18.0,2016,Under,Savarino Cos.,#009770
07-South Buffalo,YES,24,John W. Danforth Co.,1176 South Park Ave.,Buffalo,NY,42.8611520,-78.8375330,"Multi-phase, multi-development on former brownfield, Danforth operations hub","John W. Danforth Co., JT Vaeth LLC",$6.0,2017,Under,Jim,#009770
07-South Buffalo,YES,25,Riverbend Commerce Park,South Park Avenue/South Buffalo,Buffalo,NY,42.8596250,-78.8416000,Manufacturing headquarters for SolarCity Corp.,Fort Schuyler Development Corp.,"$1,500.0",2018,Under,,#009770
07-South Buffalo,YES,26,St. Teresa's School,17 Mineral Springs Road,Buffalo,NY,42.8582610,-78.8121330,Conversion to 36 apartments,The Frizlen Group,$4.5,2016,Under,Jim,#009770
07-South Buffalo,YES,27,Queen City Landing,Fuhrman Blvd.,Buffalo,NY,42.8534530,-78.8666550,Repurpose warehouse property along Outer Harbor into 23-story apartment building and retail,"Gerry Buchheit, R&P Oak Hill, Trautman Associates",$85.0,2018,Under,Jim,#009770
07-South Buffalo,YES,28,St. Thomas Aquinas School,31 Tamarack St.,Buffalo,NY,42.8515300,-78.8150400,Conversion to 36 apartments,The Frizlen Group,$5.0,2016,Under,Jim,#009770
07-South Buffalo,YES,29,Igroupe Lactalis,2376 South Park Ave.,Buffalo,NY,42.8339170,-78.8234550,"32,000 SF expansion of Sorrento Cheese headquarters and plant",,$5.6,2017,Under,Jim,#009770
07-South Buffalo,YES,30,246 Dingens,246 Dingens St.,Buffalo,NY,42.8784820,-78.8045740,Warehouse/manufacturing,Ellicott Development Co.,$8.7,2018,Z-Proposed,Ellicott Dev,#53578F
07-South Buffalo,YES,31,300 Ohio ,300 Ohio St.,Buffalo,NY,42.8689030,-78.8680900,,Ellicott Development Co.,$14.0,2018,Z-Proposed,Ellicott Dev,#53578F
07-South Buffalo,YES,32,Terminal A and Terminal B buildings,Fuhrman Blvd.,Buffalo,NY,42.8561220,-78.8735080,"Hotel, residential, waterpark",Gerry Bucheit,$250.0,2018,Z-Proposed,Jim,#53578F
07-South Buffalo,YES,33,Mercy Hospital of Buffalo,565 Abbott Road,Buffalo,NY,42.8475500,-78.8125780,"High voltage transformer upgrade, MACC Alterations",Catholic Health,$6.7,2018,Z-Proposed,Catholic Health,#53578F
08-Northtowns,YES,1,Black Rock Data Center,350 CrossPoint Pkwy.,Amherst,NY,43.0453790,-78.7494880,"46,000 SF technology center",Uniland Development Co.,$80.0,2015,Completed,"AIDA, Uniland Dev.",#CA6266
08-Northtowns,YES,2,Fidelis Care,490 CrossPoint Pkwy.,Amherst,NY,43.0431600,-78.7444890,"90,000 SF expansion",Uniland Development Co.,$16.5,2015,Completed,"Uniland,  AmIDA",#CA6266
08-Northtowns,YES,3,M&T Data Center,191 Park Club Lane/ 626 Commerce Drive ,Amherst,NY,43.0280000,-78.8002820,Back-office operations,,$105.0,2014,Completed,AIDA,#CA6266
08-Northtowns,YES,4,Fox Creek Estates,9500 Transit Road,East Amherst,NY,43.0278760,-78.6990050,"Three-story, 104-unit luxury senior apartments","DGA Builders Inc., Silvestri Architects",$26.4,2015,Completed,Silvestri,#CA6266
08-Northtowns,YES,5,Sweet Home Central School District,***,Amherst,NY,43.0098900,-78.7970970,"Capital improvements, new HS athletic fields, new roofs","LPCiminelli Inc., Young + Wright Architectural",$18.8,2015,Completed,LPCiminelli Inc.,#CA6266
08-Northtowns,YES,6,Fairfield Hotel,3800 Rensch Road,Amherst,NY,42.9999950,-78.7991130,Hotel and residential,Ellicott Development Co.,$16.0,2014,Completed,Ellicott Dev,#CA6266
08-Northtowns,YES,7,First Source Facility,100 Pirson Parkway,Tonawanda,NY,42.9949980,-78.8975840,"307,000 sq. ft. warehouse and distribution center ",Zaepfel Development,$22.0,2015,Completed,"ECIDA, Bricks 2016",#CA6266
08-Northtowns,YES,8,Unifrax 1 LLC North Youngmann Commerce Center,55 Pirson St.,Tonawanda,NY,42.9949980,-78.8975840,"Construction of 76,000 SF plant to manufacture auto parts",,$18.0,2016,Completed,"Jim, ECIDA",#CA6266
08-Northtowns,YES,9,Millard Fillmore Suburban Hospital,1540 Maple Road,Amherst,NY,42.9940130,-78.7301420,Establish and construct neonatal ICU,"Turner Construction Co., Kaleida Health",$13.6,2015,Completed,"Am-town, Kaleida",#CA6266
08-Northtowns,YES,10,KenTon USFD Phase 1 District Capital Renovations,1500 Colvin Blvd.,Kenmore,NY,42.9821040,-78.8594190,Districtwide renovations to 12 buildings,"Campus Construction Management Group, Gordon Jones Associates",$58.6,2014,Completed,KenTon UFSD,#CA6266
08-Northtowns,YES,11,Praxair Technical Center,175 E. Park Drive,Tonawanda,NY,42.9788900,-78.8955000,Facility and communications upgrade for global R&D and tech centers,,$38.0,2015,Completed,NYS,#CA6266
08-Northtowns,YES,12,Buffalo Surgery Center,3921 Sheridan Drive,Amherst,NY,42.9787460,-78.7879230,"28,000 SF surgical and GI medical facility","Matrix Development Corp., Lamparelli Construction, Excelsior Orthopaedics, Kideney",$10.3,2016,Completed,"Matrix Development, Kideney",#CA6266
08-Northtowns,YES,13,Kenmore Mercy Hospital ,2950 Elmwood Ave.,Kenmore,NY,42.9776520,-78.8799440,"ER relocation, 2nd floor orthopedic unit addition, OR expansion, ambulatory surgery expansion","R&P Oak Hill Development, Telco Construction, Catholic Health",$30.8,2016,Completed,"Bricks 2014, Catholic Health",#CA6266
08-Northtowns,YES,14,Montabaur Heights at Brothers of Mercy,4530 Ransom Road,Clarence,NY,42.9702590,-78.5925950,"Construction of 129,000 SF independent senior living facility","Matrix Development Corp./RDI LLC, Regent Contracting Corp.",$19.0,2015,Completed,Bricks 2016,#CA6266
08-Northtowns,YES,15,Greythorne Phase III,Main Street and Youngs Road,Williamsville,NY,42.9684550,-78.7189640,35 new home sites,Marrano/Marc Equity Corp.,$23.5,2015,Completed,Marrano/Marc Equity Corp.,#CA6266
08-Northtowns,YES,16,General Motors Powertrain,2995-2999 River Road,Tonawanda,NY,42.9639060,-78.9123360,Machinery and equipment,,$814.7,2014,Completed,ECIDA,#CA6266
08-Northtowns,YES,17,Hyatt Place Hotel,5020 Main St.,Amherst,NY,42.9605050,-78.7701490,"New 137-room, 87,200 SF hotel",Iskalo Development Corp.,$20.0,2015,Completed,Am-town/AIDA,#CA6266
08-Northtowns,YES,18,Wyndam Garden Hotel/Residences at the Mosey,5195 Main St.,Amherst,NY,42.9598080,-78.7589200,"120-room hotel, 36 apartments, retail",Ellicott Development Co.,$30.0,2013,Completed,Bricks 2014,#CA6266
08-Northtowns,YES,19,Wehrle Drive Office Building,1760 Wehrle Drive,Amherst,NY,42.9589150,-78.7288750,Back office facility for PHH Mortgage,"Zaepfel Development Co., Silvestri Architects",$13.0,2015,Completed,"Am-town/AIDA, Bricks 2016",#CA6266
08-Northtowns,YES,20,Amherst Central School District,55 Kings Highway,Amherst,NY,42.9556340,-78.7905890,"Various renovations and upgrades in schools, K-12",Turner Construction Co.,$23.8,2015,Completed,Turner,#CA6266
08-Northtowns,YES,21,"Evergreen Landing, Phase II",Tonawanda Creek Road,Amherst,NY,43.0495130,-78.8209910,54 new home sites,Marrano/Marc Equity Corp.,$19.4,2016,Under,Marrano/Marc Equity Corp.,#009770
08-Northtowns,YES,22,Grand Island Central School District,***,Grand Island,,43.0372790,-78.9333080,Districtwide renovations,Cannon,$51.0,2017,Under,Cannon,#009770
08-Northtowns,YES,23,Williamsville Central School District,105 Casey Road,Williamsville,NY,43.0234570,-78.7339880,"Convert three HS athletic fields to synthetic turf, add restroom, concession facility, lights","Trautman Associates, Campus Construction Management Group",$27.0,2017,Under,Trautman Associates,#009770
08-Northtowns,YES,24,Twenty91 North,100 Herron Drive,Amherst,NY,43.0191540,-78.7169370,Housing complex for up to 600 students on site of former Menorah Campus,Lecesse Construction Services LLC,$30.0,2016,Under,"Am-town, Jim",#009770
08-Northtowns,YES,25,Heron Point ,Grand Island Boulevard,Grand Island,NY,43.0159570,-78.9570680,232 residential units,Anthony Cutaia,$20.0,2017,Under,Grand Island IDA,#009770
08-Northtowns,YES,26,Fletcher Elementary School,100 Hinds St.,Tonawanda,NY,43.0106640,-78.8961090,"30,000 SF addition, renovations to existing elementary school","Trautman Associates, Campus Construction Management Group",$40.0,2017,Under,Trautman Associates,#009770
08-Northtowns,YES,27,Wegmans Food Markets Inc.,8270 Transit Road,Amherst,NY,42.9935000,-78.6990610,Addition to store,,$10.9,2016,Under,Am-town,#009770
08-Northtowns,YES,28,Unifrax 1 LLC,332 Fire Tower Road,Tonawanda,NY,42.9908430,-78.9108560,"41,000 SF expansion",,$33.0,2016,Under,Tonawanda IDA/ECIDA,#009770
08-Northtowns,YES,29,Kaleida Laboratory Services Processing Center,115 Flint Road,Amherst,NY,42.9889610,-78.7895650,Laboratory services consolidation,"Kaleida Health, LPCiminelli Inc.",$12.6,2017,Under,Kaleida,#009770
08-Northtowns,YES,30,KenTon USFD Phase 2 District Capital Renovations,1501 Colvin Blvd.,Kenmore,NY,42.9819020,-78.8585670,Districtwide facility and educational improvements in 9 buildings including auditoriums and athletic facilities,"Campus Construction Management Group, Gordon Jones Associates",$51.5,2018,Under,KenTon UFSD,#009770
08-Northtowns,YES,31,Northtown Plaza,3097 Sheridan Drive,Amherst,NY,42.9799700,-78.8182890,"Renovation of 62-year-old shopping center, 50,000 SF Whole Foods","WS Development, Picone Construction ",$75.0,2018,Under,Jim,#009770
08-Northtowns,YES,32,Windstone,51 Harbridge Manor,Amherst,NY,42.9707790,-78.7194220,Residential complex of 42 patio homes,Marrano/Marc Equity Corp.,$35.0,2017,Under,Jim,#009770
08-Northtowns,YES,33,Deer Lakes Apartments,3416 Deer Lakes Drive,Amherst,NY,43.0052590,-78.8117500,256 apartments when finished,Kulback's Construction,$39.3,2018,Z-Proposed,Jim,#53578F
08-Northtowns,YES,34,Westwood Country Club,772 N. Forest Road,Amherst,NY,42.9798800,-78.7713150,Mixed-use neighborhood,,$238.0,Z-Proposed,Z-Proposed,Ciminelli,#53578F
08-Northtowns,YES,35,Erie Community College STEM,6205 Main St.,Williamsville,NY,42.9614410,-78.7216350,"57,000 SF academic building","Turner Construction Co., Kideney Architects",$22.0,2018,Z-Proposed,"Turner, Kideney",#53578F
09-Southtowns,YES,1,Baker Hall,85 Innsbruck Drive,Lackawanna,NY,42.8742270,-78.7504550,Construction of residential treatment facility,,$13.4,2015,Completed,ECIDA,#CA6266
09-Southtowns,YES,2,Ebenezer Square,2400 Seneca St.,West Seneca,NY,42.8492600,-78.7999650,100-unit affordable multi-family housing,"Calamar, DePaul",$16.5,2016,Completed,Calamar,#CA6266
09-Southtowns,YES,3,Princeton Estates South,Fisher Road and Caldwell Drive,West Seneca,NY,42.8389800,-78.6981830,51 new home sites,Marrano/Marc Equity Corp.,$17.3,2015,Completed,Marrano/Marc Equity Corp.,#CA6266
09-Southtowns,YES,4,Solar Panel Installation,1951 Hamburg Turnpike,Lackawanna,NY,42.8301830,-78.8563600,"13,000 solar panels to be installed on 23 acres",BQ Energy LLC,$10.0,2015,Completed,Lackawanna IDA,#CA6266
09-Southtowns,YES,5,North American Salt Co.,1951 Hamburg Turnpike,Lackawanna,NY,42.8301830,-78.8563600,"Construction of two structures for import, packaging and distribution of bulk salt",,$7.3,2015,Completed,ECIDA,#CA6266
09-Southtowns,YES,6,Lackawanna Food Bazaar,264 Ridge Road,Lackawanna,NY,42.8276020,-78.8420100,"20,000 SF supermarket and 30,000 SF two-story mixed use retail and residential structure",,$15.0,2015,Completed,Lackawanna IDA,#CA6266
09-Southtowns,YES,7,Baker Victory Services,150 Martin Road,Lackawanna,NY,42.8181390,-78.8189620,17 acres in planning stages with Lackawanna IDA,Baker Victory Service Inc.,$16.4,2015,Completed,Lackawanna IDA,#CA6266
09-Southtowns,YES,8,"Lackawanna Schools, Truman Elementary",15 Inner Drive,Lackawanna,NY,42.8058930,-78.8030660,"94,000 SF renovation","Transit Construction, Kideney Architects",$6.5,2015,Completed,Kideney,#CA6266
09-Southtowns,YES,9,Moog Corporate Headquarters,,Elma,NY,42.8038990,-78.6515530,"65,000 SF building for Moog corporate divisions",LPCiminelli Inc.,$16.0,2013,Completed,LPCiminelli Inc.,#CA6266
09-Southtowns,YES,10,Ford Stamping Plant,3663 Lakeshore Road,Hamburg,NY,42.7870440,-78.8430700,End-item stacker commercial addition,LPCiminelli Inc.,$4.1,2016,Completed,Hamburg IDA,#CA6266
09-Southtowns,YES,11,FedEx Ground Transportation Center,3779 Lakeshore Road,Hamburg,NY,42.7811610,-78.8516940,"320,000 SF warehouse/transportation center",JR Fort Collins LLC,$54.0,2015,Completed,"Hamburg IDA, Jim",#CA6266
09-Southtowns,YES,12,McGard Corp.,3875 California Road,Orchard Park,NY,42.7791470,-78.7782780,"71,800 SF factory and office addition",Lehigh Construction,$8.3,2015,Completed,ECIDA,#CA6266
09-Southtowns,YES,13,Buffalo Medical Group PC,3900 N. Buffalo Road,Orchard Park,NY,42.7772690,-78.7461810,"45,000 SF medical office building",McGuire Development Co.,$9.0,2014,Completed,"Bricks 2015, McGuire",#CA6266
09-Southtowns,YES,14,Ralph Wilson Stadium upgrades,One Bills Drive,Orchard Park,NY,42.7737270,-78.7865750,Renovations per 10-year lease extension by the Buffalo Bills,"LPCiminelli Inc., Ferguson Electric, Frey Electric",$130.0,2014,Completed,"Jim, Bricks 2014, LPCiminelli",#CA6266
09-Southtowns,YES,15,Mission Hills II LLC,4543 Camp Road,Hamburg,NY,42.7620110,-78.8611720,Senior housing project,Liberty Park Senior Corp.,$10.0,2013,Completed,Hamburg IDA,#CA6266
09-Southtowns,YES,16,BrookBridge Medical Office Park,5959 Big Tree Road,Orchard Park,NY,42.7598170,-78.7618870,"116,000 SF medical office building",The Krog Group,$25.0,2016,Completed,Krog,#CA6266
09-Southtowns,YES,17,Deer Springs Part 4 Phase 2B,Southwestern Blvd.,Hamburg,NY,42.7177220,-78.9178310,40 new home sites,Marrano/Marc Equity Corp.,$13.0,2015,Completed,Marrano/Marc Equity Corp.,#CA6266
09-Southtowns,YES,18,Erie County SPCA,300 Harlem Road,West Seneca,NY,42.8520630,-78.7888990,"55,000 SF facility","Kideney Architects, Concept Construction",$12.5,2017,Under,Kideney,#009770
09-Southtowns,YES,19,Iroquois Central Schools Excel Project ,2112 Girdle Road,East Aurora,NY,42.8224590,-78.6059400,,Gordon Jones PROPOSED,$17.0,2017,Under,Iroqouis CSD,#009770
09-Southtowns,YES,20,Orchard Park Central School District,2240 Southwestern Blvd.,West Seneca,NY,42.8102800,-78.7194280,"Various renovations and upgrades in schools, K-12",Turner Construction Co.,$25.0,2017,Under,Turner,#009770
09-Southtowns,YES,21,Moog manufacturing and test facility,Elma,Elma,NY,42.8015920,-78.6436160,"35,000 SF testing center",Moog Inc.,$12.0,2017,Under,Jim,#009770
09-Southtowns,YES,22,Holly Ridge Estates,14 Evergreen Train,Orchard Park,NY,42.7808870,-78.7206850,26 single-family lots and homes,Forbes Capretto Homes,$18.0,2017,Under,Forbes,#009770
09-Southtowns,YES,23,Sherwood Meadows Phase 1,3750 Heatherwood Drive,Hamburg,NY,42.7618690,-78.8452930,Construction of apartment buildings on Hopevale School property,"Dato Development LLC, Burke Homes LLC",$13.0,2017,Under,Jim,#009770
09-Southtowns,YES,24,Orchard Heights expansion,5200 Chestnut Ridge Road,Orchard Park,NY,42.7441890,-78.7499210,Expansion of 32 independent living units and 30 assisted living units,"Hamister Group LLC, R&P Oak Hill",$28.6,2016,Under,"ECIDA, Hamister",#009770
09-Southtowns,YES,25,Flexovit USA Inc.,1305 Eden-Evans Center Road,Evans,NY,42.6513680,-79.0097680,"Rebuild 65,000 SF warehouse destroyed in November 2014 snowstorm",,$8.0,2016,Under,"Town of Evans, ECIDA",#009770
09-Southtowns,YES,26,3900 North Buffalo Road,3900 North Buffalo Road,Orchard Park,NY,42.7772690,-78.7461810,Apartments,Ellicott Development Co.,$12.0,2018,Z-Proposed,Ellicott Dev,#53578F
09-Southtowns,YES,27,St. Joseph's Motherhouse complex,South Park Avenue,Hamburg,NY,42.7551610,-78.8250390,"Redevelopment of apartments, health center, townhouses",Sinatra & Co. ,$50.0,2018,Z-Proposed,Jim,#53578F
10-Eastern Suburbs,YES,1,Springhill Suites Hotel,6647 Transit Road,Lancaster,NY,42.9516550,-78.6945400,108-room hotel,Kai Construction Co.,$14.0,2015,Completed,"Lancaster Town, Jim",#CA6266
10-Eastern Suburbs,YES,2,Aspire of WNY Center for Learning,4635 Union Road,Cheektowaga,NY,42.9401100,-78.7541900,"Building addition, alterations and renovations",Waterbourne Construction Advisors LLC,$8.0,2015,Completed,"Cheektown, Bricks 2016",#CA6266
10-Eastern Suburbs,YES,3,"Delavan, The ",6461 Transit Road,Lancaster,NY,42.9368600,-78.6961360,"60-room, 4-story hotel, fitness center, Capello's spa","Salvatore's Italian Gardens, Concept Construction Corp., Carmina Woods",$9.5,2016,Completed,Jim,#CA6266
10-Eastern Suburbs,YES,4,Gateway II Apartments,4989 Genesee St.,Cheektowaga,NY,42.9338120,-78.7017220,80 apartments from 820 to 1085 SF each,"Bella Vista Group, Redtek Development",$10.0,2014,Completed,Bella Vista Group,#CA6266
10-Eastern Suburbs,YES,5,TownePlace Suites Buffalo Airport,4265 Genesee St.,Cheektowaga,NY,42.9301950,-78.7282650,,Benderson Development Co. LLC Co.,$10.0,2013,Completed,"Cheektown, Benderson",#CA6266
10-Eastern Suburbs,YES,6,Cantalician Center for Learning Inc.,2049 George Urban Blvd.,Depew,NY,42.9178670,-78.7339660,Construction of nonprofit school for 240 children with developmental and physical disabilities,Arbour Construction Management Inc.,$14.7,2013,Completed,"Bricks 2014, ECIDA",#CA6266
10-Eastern Suburbs,YES,7,Walden Galleria,Walden Avenue,Cheektowaga,NY,42.9128700,-78.7628850,mall renovations,Pyramid Cos.,$11.0,2015,Completed,Jim,#CA6266
10-Eastern Suburbs,YES,8,Walmart Plaza,2500-2523 Walden Ave.,Cheektowaga,NY,42.9096370,-78.7434860,"Plaza anchored by 180,000 SF Walmart Supercenter",,$11.0,2015,Completed,"Jim, Cheektown",#CA6266
10-Eastern Suburbs,YES,9,Millennium Hotel Buffalo,2040 Walden Ave.,Cheektowaga,NY,42.9095650,-78.7604460,"Renovations to 300 guestrooms, restaurants, meeting spaces",Millennium Hotel Buffalo,$6.5,2015,Completed,ECIDA,#CA6266
10-Eastern Suburbs,YES,10,HSBC ,2929 Walden Ave.,Depew,NY,42.9093230,-78.7270860,"Renovation of leased facility for commercial banking, HR, legal, risk and compliance",HSBC Bank USA NA,$35.0,2015,Completed,,#CA6266
10-Eastern Suburbs,YES,11,Lancaster Central School District,177 Central Ave.,Lancaster,NY,42.9078560,-78.6714560,Districtwide improvements to 11 buildings,"LPCiminelli Inc., Young + Wright Architectural",$16.5,2015,Completed,"LancasterSchoolDistrict, LPCiminelli",#CA6266
10-Eastern Suburbs,YES,12,Derrick Corp.,2185 Walden Ave.,Cheektowaga,NY,42.9062270,-78.7557580,"124,000 SF addition to 230,000 SF manufacturing plant",Lehigh Construction Group,$19.5,2013,Completed,ECIDA,#CA6266
10-Eastern Suburbs,YES,13,Cabela's Crossing ,2001 Walden Ave.,Cheektowaga,NY,42.9056820,-78.7637250,"94,165 SF sporting good store",Benderson Development Co. LLC,$16.0,2014,Completed,"Jim, Bricks 2015, Benderson",#CA6266
10-Eastern Suburbs,YES,14,Derrick Corp.,590 Duke Road,Cheektowaga,NY,42.9056640,-78.7574980,Expansion,,$9.8,2015,Completed,ECIDA,#CA6266
10-Eastern Suburbs,YES,15,Home2Suites by Hilton,1999 Walden Ave.,Cheektowaga,NY,42.9056190,-78.7655360,108-room hotel,Benderson Development Co. LLC Co.,$20.0,2015,Completed,Benderson Development Co. LLC,#CA6266
10-Eastern Suburbs,YES,16,Alden Central School District ,13190 Park St.,Alden,NY,42.9038510,-78.4966100,"Renovations include roofs, boilers, HVAC, phone systems, secure entryways, classrooms, athletic field, playground",Turner Construction Co.,$9.9,2016,Completed,"Alden CSD, Turner",#CA6266
10-Eastern Suburbs,YES,17,Niagara Transformer Corp.,1755 Dale Road,Cheektowaga,NY,42.9034390,-78.7716800,"Construction of 24,000 SF plant",LBM Construction,$8.0,2014,Completed,Cheektown/ECIDA,#CA6266
10-Eastern Suburbs,YES,18,Depew Union Free School District,5201 S. Transit Road ,Depew,NY,42.8960150,-78.6966210,Capital improvements in four district buildings,"LPCiminelli Inc., Young + Wright Architectural",$16.0,2014,Completed,LPCiminelli Inc.,#CA6266
10-Eastern Suburbs,YES,19,Autumnwood Subdivision,William and Bowen roads,Lancaster,NY,42.8807440,-78.6400600,42-lot subdivision,Dev: CMK Builders,$11.6,2015,Completed,Lancaster Town,#CA6266
10-Eastern Suburbs,YES,20,Summerfield Farms Phase 6,Bowen Road,Lancaster,NY,42.8737450,-78.6237310,29-lot subdivision,Dev: Marrano Marc Equity,$8.7,2015,Completed,Lancaster Town,#CA6266
10-Eastern Suburbs,YES,21,Moog Corporate Headquarters,400 Jamison Road,Elma,NY,42.8051640,-78.6530110,"65,000 SF headquarters",LPCiminelli Inc.,$16.0,2013,Completed,"Bricks 2013, LPCiminelli",#CA6266
10-Eastern Suburbs,YES,22,Village of East Aurora Central Fire Station,33 Center St.,East Aurora,NY,42.7670170,-78.6232440,"22,800 SF fire station with apparatus bay, two-story administration building, living quarters",Picone Construction,$6.7,2015,Completed,"Town of Aurora, Bricks 2016",#CA6266
10-Eastern Suburbs,YES,23,Lancaster Apartments,375 Harris Hill Rd.,Lancaster,NY,42.9524040,-78.6806720,Complex for those 55 and older,"Angelo Natale, Frank Parisi, Robert Corrao",$20.0,2016,Under,Jim,#009770
10-Eastern Suburbs,YES,24,Sodexo Inc.,400 Airborne Parkway,Cheektowaga,NY,42.9379310,-78.7145520,"110,000 SF headquarters building, consolidate 4 buildings into 1",Uniland Development Co.,$27.0,2016,Under,"ECIDA, Uniland",#009770
10-Eastern Suburbs,YES,25,Maryvale Union Free School District,***,Cheektowaga,,42.9368660,-78.7501630,Districtwide renovations,Cannon,$12.0,2017,Under,Cannon,#009770
10-Eastern Suburbs,YES,26,Calspan Business Park ,4455 Genesee St.,Cheektowaga,NY,42.9323020,-78.7240370,Tenant and property renovations,Calspan Corp.,$10.0,2017,Under,Matrix,#009770
10-Eastern Suburbs,YES,27,Genesee & Buell,4019 Genesee St.,Cheektowaga,NY,42.9297930,-78.7370310,"100,000 SF warehouse",Benderson Development Co. LLC,$8.0,2017,Under,Benderson Development Co. LLC,#009770
10-Eastern Suburbs,YES,28,Juniper Crossing,501 Juniper Road,Lancaster,NY,42.9248860,-78.6599890,Apartment development,SB Ashley & Assoc. Venture,$22.5,2017,Under,Lancaster Town,#009770
10-Eastern Suburbs,YES,29,Pleasant Meadows Patio Homes,Juniper Boulevard,Lancaster,NY,42.9229520,-78.6584200,29 new home sites,Marrano/Marc Equity Corp.,$9.6,2016,Under,Marrano/Marc Equity Corp.,#009770
10-Eastern Suburbs,YES,30,Lancaster Central School District,177 Central Ave.,Lancaster,NY,42.9078560,-78.6714560,"Upgrades throughout district; majority of work at high school including gym, fieldhouse, music suite","LPCiminelli Inc., Young + Wright Architectural",$57.3,2019,Under,LPCiminelli Inc.,#009770
10-Eastern Suburbs,YES,31,Broadway Development Park ,2839 Broadway,Cheektowaga,NY,42.8983730,-78.7702500,"62,000 SF, 35,000 SF warehouse buildings",Benderson Development Co. LLC,$8.0,2017,Under,Benderson Development Co. LLC,#009770
10-Eastern Suburbs,YES,32,Summerfield Farms Phase 7,Bowen Road,Lancaster,NY,42.8729940,-78.6267870,58-lot subdivision,Dev: Marrano Marc Equity,$17.4,2017,Under,Lancaster Town,#009770
10-Eastern Suburbs,YES,33,Hidden Meadow,671 Aurora St.,Lancaster,NY,42.8706920,-78.6769770,88 single-family lots and homes,Forbes Capretto Homes,$35.0,2021,Under,Forbes,#009770
10-Eastern Suburbs,YES,34,Fisher-Price Inc.,636 Girard Ave.,East Aurora,NY,42.7738940,-78.6112560,Renovations to R&D facility,,$8.0,2017,Under,ECIDA,#009770
11-Niagara Falls,YES,1,Lewiston Queenston Bridge ,Lewiston Queenston Bridge,Lewiston,NY,43.1516880,-79.0359770,"Plaza reconstruction - USA side Phase I, moving duty-free store",Turner Construction,$32.5,2014,Completed,NF Bridge Comm.,#CA6266
11-Niagara Falls,YES,2,B.Thomas Golisano Center for Integrated Sciences,"Niagara University, 5795 Lewiston Rd",Lewiston,NY,43.1378480,-79.0376510,"50,000 SF science center",Scrufari Construction,$48.0,2013,Completed,Bricks 2014,#CA6266
11-Niagara Falls,YES,3,Niagara Falls Air Reserve Station,10405 Lockport Road,Niagara Falls,NY,43.1209910,-78.9425500,"Firing range, runway rehab, C-130 simulator building, portion of projects completed since 2010.  ",,$19.8,2013,Completed,Jim,#CA6266
11-Niagara Falls,YES,4,Bridgestone APM Co. ,6311 Inducon Corporate Drive West,Wheatfield,NY,43.1188610,-78.9185350,"65,000 SF building for manufacturer of foam seating for U.S. and Canadian auto manufacturers",,$12.3,2015,Completed,"Wheat-town, NCIDA",#CA6266
11-Niagara Falls,YES,5,Tulip Corp.Tract 1,3125 Highland Avenue,Niagara Falls,NY,43.1163310,-79.0459330,Remediation of site for Tulip Corp. new plant,Tulip Corp.,$17.0,2016,Completed,Jim,#CA6266
11-Niagara Falls,YES,6,Fashion Outlets of Niagara Falls USA,1900 Military Road,Niagara Falls,NY,43.0990210,-78.9778420,"230,000 SF expansion of outlet mall",LPCiminelli Inc.,$71.0,2015,Completed,"Town of Niagara, Bricks 2015",#CA6266
11-Niagara Falls,YES,7,LaSalle Center,1500 Military Road,Niagara Falls,NY,43.0935290,-78.9738780,"136,000 SF retail plaza",Benderson Development Co. LLC,$22.0,2015,Completed,Benderson Development Co. LLC,#CA6266
11-Niagara Falls,YES,8,Greenpac Mill LLC,4400 Royal Ave. ,Niagara Falls,NY,43.0883130,-79.0140010,"350,000 paper mill plant",,$408.0,2013,Completed,NFalls-City,#CA6266
11-Niagara Falls,YES,9,Maid of the Mist Winter Storage,Niagara Falls State Park,Niagara Falls,NY,43.0867820,-79.0680560,"Dry dock facility, maintenance building, elevator building",LPCiminelli Inc.,$32.0,2014,Completed,Bricks 2015,#CA6266
11-Niagara Falls,YES,10,"Niagara Falls City School District, Inventing Tomorrow",11 schools,Niagara Falls,NY,43.0864240,-78.9889710,"Inventing Tomorrow, two-phase, 11 schools including 8 elementary, 2 prepatory, 1 high school","LPCiminelli, Rodems Construction Co., Cannon Design",$67.0,2015,Completed,Bricks 2016,#CA6266
11-Niagara Falls,YES,11,Seneca Niagara Casino & Hotel ,310 Fourth St.,Niagara Falls,NY,43.0863930,-79.0566690,"renovation of main gaming floor and air quality system, addition of Stir Nightclub","Seneca Gaming Corp., Seneca Construction Management Corp.",$26.0,2014,Completed,"Senecas, Bricks 2015",#CA6266
11-Niagara Falls,YES,12,Covanta Holding Corp.,100 Energy Blvd.,Niagara Falls,NY,43.0834270,-79.0071270,"New rail line and infrastructure, land remediation, construction of 9,000 SF rail-to-truck intermodal facility","LPCiminelli Construction Corp., LaBella Associates PC",$30.0,2015,Completed,NCIDA.Dave,#CA6266
11-Niagara Falls,YES,13,Olin Corp.,2400 Buffalo Ave.,Niagara Falls,NY,43.0828110,-79.0332590,4 new manufacturing buildings,,$20.0,2013,Completed,NFalls-City,#CA6266
11-Niagara Falls,YES,14,DoubleTree by Hilton Hotel,401 Buffalo Ave.,Niagara Falls,NY,43.0817780,-79.0563010,"Conversion of former Fallside Inn to DoubleTree, 192 rooms, 16,000 SF meeting space","Merani Hotel Group, Waterbourne Group",$27.0,2016,Completed,"Jim, Empire State Dev., NCIDA",#CA6266
11-Niagara Falls,YES,15,Lewiston Queenston Bridge toll booth expansion,Lewiston Queenston Bridge,Lewiston,NY,43.1516880,-79.0359770,Plaza reconstruction - USA side Phase 2,Turner Construction,$24.0,2016,Under,Turner,#009770
11-Niagara Falls,YES,16,Niagara Wheatfield Central School District,2292 Saunders Settlement Road,Sanborn,NY,43.1405620,-78.9221320,"185,000 SF of roof replacements, reconstruction two district buildings, renovations at 6 buildings","Trautman Associates, Turner Construction Co.",$15.0,2018,Under,Trautman Associates,#009770
11-Niagara Falls,YES,17,Lewiston Pump Generating Plant,,Lewiston,NY,43.1403610,-79.0390810,Replacement of 12 pump turbines,"New York Power Authority, Ferguson Electric ",$460.0,2022,Under,Dave,#009770
11-Niagara Falls,YES,18,Niagara Falls Air Reserve Station,10405 Lockport Road,Niagara Falls,NY,43.1209910,-78.9425500,Conversion of refueling system for U.S. Air Force KC-135 tankers,,$25.0,2017,Under,Jim,#009770
11-Niagara Falls,YES,19,Tulip Corp. plant,3125 Highland Avenue,Niagara Falls,NY,43.1163310,-79.0459330,"70,000 SF plant to replace 114-year=old, 125,000 SF plant",Tulip Corp.,$11.7,2017,Under,Jim,#009770
11-Niagara Falls,YES,20,Niagara Falls Intermodal Transportation Center,2300 Main St.,Niagara Falls,NY,43.1101830,-79.0545500,Railroad station,City of Niagara Falls,$130.0,2016,Under,NCIDA,#009770
11-Niagara Falls,YES,21,Hyatt Place Hotel,310 Rainbow Blvd.,Niagara Falls,NY,43.0862020,-79.0633110,"128 hotel rooms, 14,500 SF banquet space, 7,000 SF retail","Hamister Group LLC, R&P Oak Hill, Carmina Woods",$38.3,2017,Under,"Jim, Hamister, Empire State Dev",#009770
11-Niagara Falls,YES,22,Econolodge,200 Rainbow Blvd.,Niagara Falls,NY,43.0844140,-79.0599300,Renovation,B.F. Patel,$11.3,2017,Under,NCIDA,#009770
11-Niagara Falls,YES,23,Courtyard by Marriott,900 Buffalo Ave.,Niagara Falls,NY,43.0829780,-79.0512940,"Renovation of former Moore Business forms building into 82-room, 65,700 SF  hotel","Eastern Hospitality Advisors, BF Patel",$10.8,2017,Under,"NCIDA, Jim, Empire State Dev",#009770
11-Niagara Falls,YES,24,Robert Moses Parkway South/Riverway Project,***,Niagara Falls,NY,43.0824060,-79.0619060,One-mile stretch into a pedestrian and tourist-friendly roadway,Mark Cerrone Inc.,$20.0,2017,Under,Jim,#009770
11-Niagara Falls,YES,25,DeGraff Memorial Hospital,445 Tremont St.,North Tonawanda,NY,43.0251280,-78.8621460,Relocate ER department from east side of campus to west side,Kaleida Health,$7.8,2018,Under,Kaleida,#009770
11-Niagara Falls,YES,26,Center Street building,Center Street,Lewiston,NY,43.1726380,-79.0360690,"Mixed-used 40,000 SF residential and retail",Ellicott Development Co.,$14.0,2018,Z-Proposed,Jim,#53578F
11-Niagara Falls,YES,27,Robert Moses Parkway North Project,***,Niagara Falls,NY,43.1005170,-79.0578040,"Removal of 7 acres of pavement to create 135 acre, accessible ribbon of green space along the Niagara Gorge rim",,$42.0,2020,Z-Proposed,Empire State Dev,#53578F
11-Niagara Falls,YES,28,Niagara Sports Complex,6929 Williams Road,Niagara Falls,NY,43.0880610,-78.9372490,"Dual bubbles, 192,000 SF sports complex at Summit Park Mall",,$15.0,2018,Z-Proposed,Wheat-town,#53578F
11-Niagara Falls,YES,29,Wonder Falls,Rainbow Center Mall,Niagara Falls,NY,43.0878200,-79.0624160,"Hotel, water park, entertainment center",Uniland Development Co.,$150.0,Z-Proposed,Z-Proposed,"Jim, Uniland",#53578F
11-Niagara Falls,YES,30,Hotel Niagara,201 Rainbow Blvd.,Niagara Falls,NY,43.0849130,-79.0612290,Restoration of 193-room hotel,RFPs  due in October 2016,$28.0,2018,Z-Proposed,NCIDA,#53578F
12-Lockport Area,YES,1,Mount View Assisted Living Inc.,5465 Upper Mountain Road,Lockport,NY,43.1760860,-78.7377450,Conversion of former Mount View Health Facility into 150-bed assisted living facility,David Tosetto,$6.5,2014,Completed,Tracey,#CA6266
12-Lockport Area,YES,2,Cornerstone CFCU Arena,34 Chestnut St.,Lockport,NY,43.1726260,-78.6882370,"90,000 SF. twin-pad hockey facility and sports center",Waterbourne Construction Advisors LLC,$15.0,2014,Completed,"Bricks 2015, Brian Smith",#CA6266
12-Lockport Area,YES,3,Trek Inc.,210 Walnut St.,Lockport,NY,43.1694050,-78.6870720,"48,000 SF manufacturing and office space for corporate headquarters","D.R.Chamberlain, Greater Lockport Development Corp.",$5.3,2013,Completed,"Lkpt-City, Harrison Place,NCIDA",#CA6266
12-Lockport Area,YES,4,Delphi Site Separation Project,200 Upper Mountain Road,Lockport,NY,43.1693220,-78.7322900,Separate utilities for Building 6 from existing plant,"Watts Architecture & Engineering, Delphi Thermal",$5.0,2013,Completed,Watts Architecture,#CA6266
12-Lockport Area,YES,5,Torrent expansion at Harrison Place,190 Walnut St.,Lockport,NY,43.1692920,-78.6885060,"16,000 SF manufacturing and office space","D.R.Chamberlain, Greater Lockport Development Corp.",$1.0,2015,Completed,Harrison Place,#CA6266
12-Lockport Area,YES,6,Yahoo Phase II,5319 Enterprise Drive,Lockport,NY,43.1674940,-78.7515880,"190,000 SF data center and technical call center",,$170.0,2014,Completed,"Lkpt-Town IDA, Empire State",#CA6266
12-Lockport Area,YES,7,Lockport City School District,610 E. High St.,Lockport,NY,43.1651750,-78.6745430,"9,700 SF addition to Roy B. Kelley Elementary School",Picone Construction Corp.,$3.7,2013,Completed,Bricks 2014,#CA6266
12-Lockport Area,YES,8,Diversified Manufacturing,410 Ohio St.,Lockport,NY,43.1634670,-78.7087850,"42,000 sq. ft. expansion of manufacturing space",Mulvey Construction Inc.,$5.0,2013,Completed,Lkpt-City,#CA6266
12-Lockport Area,YES,9,Walmart Supercenter,5735 S. Transit Rd.,Lockport,NY,43.1471970,-78.6930020,"185,000 SF supercenter",,$12.0,2015,Completed,Lkpt-Town,#CA6266
12-Lockport Area,YES,10,Niagara Regional Surgery Center,5875 S. Transit Rd.,Lockport,NY,43.1387130,-78.6958220,Ambulatory surgery center,Eastern Niagara Health Systems,$5.6,2015,Completed,Lkpt-Town IDA,#CA6266
12-Lockport Area,YES,11,Basil Volkswagen,6179 S. Transit Rd.,Lockport,NY,43.1226340,-78.6956490,Auto dealership,,$4.0,2014,Completed,Lkpt-Town IDA,#CA6266
12-Lockport Area,YES,12,Transit Drive-In ,6655 S. Transit Road,Lockport,NY,43.1045830,-78.6948290,"New parking for screen 5, entrance, projection booth",Kelco Construction Management Inc. ,$1.1,2016,Completed,Kelco,#CA6266
12-Lockport Area,YES,13,New York Beer Project,6933 S. Transit Road,Lockport,NY,43.0903340,-78.6968780,"12,000 SF microbrewery and gastro pub",,$3.7,2015,Completed,Lockport IDA,#CA6266
12-Lockport Area,YES,14,BeauVine Vineyards LLC,4746 Town Line Road,Lockport,NY,43.1805900,-78.7550240,"14,000 SF grape processing/retail facility",Robin and Duncan Ross,$1.3,2017,Under,Tracey,#009770
12-Lockport Area,YES,15,"Flight of Five, Lockport Locks, (Locks 67-71)",Erie Canal-Lockport,Lockport,NY,43.1711070,-78.6927350,Restoration of historic Erie Canal lock 68 and miter gate between locks 68 and 69 ,Lockport Locks Heritage District Corp.,$10.0,2017,Under,Empire State Dev,#009770
12-Lockport Area,YES,16,Lockport City School District,130 Beattie Ave.,Lockport,NY,43.1606160,-78.6795110,Mechanical equipment upgrades at 8 district buildings,"Trautman Associates, Campus Construction Management Group",$5.8,2017,Under,Trautman Associates,#009770
12-Lockport Area,YES,17,Startpoint Central School District,4363 Mapleton Road,Lockport,NY,43.1259460,-78.8070900,"Various renovations and upgrades in schools, K-12",Turner Construction Co.,$15.0,2017,Under,Turner,#009770
12-Lockport Area,YES,18,Hampton Inn,6082 Transit Road,Pendleton,NY,43.0940880,-78.7000460,New construction,,$5.7,2016,Under,NCIDA,#009770
12-Lockport Area,YES,19,"Bear Ridge Estates, Phase 4 & 5",7297 Paddock Ridge,Pendleton,NY,43.0765450,-78.7912780,48 single-family lots and homes,Forbes Capretto Homes,$19.0,2018,Under,Forbes,#009770
13-Allegany,YES,1,Swain Ski Resort,2275 County Line Road 24,Swain,NY,42.4766560,-77.8545280,All-season recreational area,Swain Ski Resort,$2.5,2013,Completed,Allegany IDA,#CA6266
13-Allegany,YES,2,Kerr-Pegula Athletic Complex,9897 NYS Route 19,Houghton,NY,42.4295520,-78.1504830,"Three-phase, 115,000 SF field house and athletic fields for Houghton College",,$23.0,2014,Completed,"Allegany IDA, Dan",#CA6266
13-Allegany,YES,3,Solar Houghton,NYS Route 19,Houghton,NY,42.4287990,-78.1464810,12-acre solar panel farm to power half of Houghton College's electricity needs,Smart Energy Capital,$5.5,2015,Completed,Allegany IDA,#CA6266
13-Allegany,YES,4,Alfred State Anderson Complex Vet Tech Center,14 Upper College Drive,Alfred,NY,42.2647440,-77.7804600,"7,500 SF renovation for animal housing, teaching labs, surgical/radiography suites",Alfred State College,$2.1,2015,Completed,Allegany IDA,#CA6266
13-Allegany,YES,5,Alfred University Athletic Complex,99 N. Main St.,Alfred,NY,42.2587470,-77.7873880,Major addition to the McLane Athletic Center with additional basketball courts,Alfred University,$14.5,2014,Completed,Allegany IDA,#CA6266
13-Allegany,YES,6,"Ade Dining Hall, Alfred University",1 Saxob Drive,Alfred,NY,42.2585440,-77.7845880,Dining hall renovations,Alfred University,$1.5,2014,Completed,Allegany IDA,#CA6266
13-Allegany,YES,7,Alfred State Student Leadership Center,12 Upper College Drive,Alfred,NY,42.2562890,77.7934620,Student activity center,Alfred State College,$33.0,2013,Completed,Allegany IDA,#CA6266
13-Allegany,YES,8,Alfred State Physical and Health Sciences Facility,10 Upper College Drive,Alfred,NY,42.2559440,-77.7949180,"55,000 SF educational faciilty",Alfred State College,$15.0,2016,Completed,Allegany IDA,#CA6266
13-Allegany,YES,9,Alfred University Integrated Manufacturing Center ,1 Saxon Drive,Alfred,NY,42.2553380,-77.7884640,Create Advanced Materials Manufacturing and Training Center,Alfred University,$4.5,2014,Completed,NYS,#CA6266
13-Allegany,YES,10,Alfred State Nano Laboratory,13 Upper College Drive,Alfred,NY,42.2551270,-77.7966250,Student laboratory for semiconductor manufacturing processes,Alfred State College,$1.0,2016,Completed,Allegany IDA,#CA6266
13-Allegany,YES,11,Tops Markets LLC,111 Bolivar Road,Wellsville,NY,42.1264270,-77.9626400,Supermarket renovations,"Riverwalk Inc., Concept Construction",$1.2,2015,Completed,Tops,#CA6266
13-Allegany,YES,12,Construction Workforce Development Center,2530 River Road,Wellsville,NY,42.1107310,-77.9450330,,State of New York,$4.1,2016,Completed,Allegany IDA,#CA6266
13-Allegany,YES,13,GE/Lufkin/RMT,Tarantine Blvd.,Wellsville,NY,42.1058980,-77.9965200,"55,000 SF manufacturing faciilty",Lufkin,$5.7,2013,Completed,Allegany IDA,#CA6266
13-Allegany,YES,14,Belvac Production Machinery Inc. Start NY Project,Sugar Hill Industrial Park,Alfred,NY,42.2698160,-77.7867160,Purchased assets of Xylon Techincal Ceramics in Alfred,,$1.0,2017,Under,Allegany IDA,#009770
13-Allegany,YES,15,Allegany County Solar Project,5892 CR 48,Belmont,NY,42.2590520,-78.0374160,10-acre solar farm for county electricity needs,,$5.5,2017,Under,Allegany IDA,#009770
13-Allegany,YES,16,Alfred University Museum of Ceramic Art,2 Pine St.,Alfred,NY,42.2567890,-77.7880590,"20,000 SF two-story museum on campus of Alfred University",Alfred University,$10.0,2016,Under,Allegany IDA,#009770
13-Allegany,YES,17,Alfred University High Temperature Lab,"1 Saxon Drive, Binns-Merrill Hall",Alfred,NY,42.2553380,77.7884640,Renovation for high temperature materials characterization laboratory,Alfred University,$9.8,2016,Under,NYS,#009770
13-Allegany,YES,18,Alfred State Mackenzie Residence Hall ,11 Upper College Drive,Alfred,NY,42.2550280,-77.7996630,"Renovations for 1,100-student residence hall",LeChase Construction,$15.0,2018,Under,Allegany IDA,#009770
13-Allegany,YES,19,Al;fred State Pioneer Stadium Locker Room,10 Upper College Drive,Alfred,NY,42.2549370,-77.8027090,Locker rooms added to Pioneer Stadium,Kideney,$1.5,2017,Under,Allegany IDA,#009770
13-Allegany,YES,20,Allegany County Broadband Project,countywide,Allegany County,NY,42.2231240,-78.0344510,"Delivery of broadband to 29 towns and communities, households and businesses",Conxx NE,$1.0,2017,Under,Allegany IDA,#009770
13-Allegany,YES,21,Alfred State Sustainable Advanced Manufacturing Center,2530 River Road,Wellsville,NY,42.1083580,-77.9417770,Advance manufacturing and training facility,Alfred State College,$5.0,2017,Under,Allegany IDA/NYS,#009770
13-Allegany,YES,22,Alfred University Center for Advanced Ceramic Manufacturing and Education,1 Saxon Drive,Alfred,NY,42.2553380,-77.7884640,Center to assist industries with ceramics and other advanced materials in manufacturing,Alfred University,$7.8,2018,Z-Proposed,Allegany IDA,#53578F
14-Chautauqua,YES,1,Cattaraugus Indian Reservation Volunteer Fire Department,12879 Route 438,Irving,NY,42.5358420,-78.9908120,"Seven vehicle bays, offices, emergency department, classrooms, training space, banquet facility","Seneca Nation of Indians, Seneca Construction Management Corp.",$13.0,2015,Completed,Senecas,#CA6266
14-Chautauqua,YES,2,SUNY Fredonia Fitness Center,280 Central Ave.,Fredonia,NY,42.4578520,-79.3407650,New fitness center in Dods Hall,,$2.7,2013,Completed,Dan,#CA6266
14-Chautauqua,YES,3,Brockton Central School District,138 W. Main St.,Brocton,NY,42.3916690,-79.4323730,"Renovation/reconstruction of cupola, kitchen, cafeteria, natatorium, fitness center","Sandberg Kessler Architecture PC, GL Olson",$12.0,2014,Completed,Bricks 2015,#CA6266
14-Chautauqua,YES,4,Holiday Inn Express,2811 N. Main St.,Jamestown,NY,42.1189960,-79.2408900,Construction of 75-room hotel,"Ramesh Patel, Boxwood Hotel LLC",$5.0,2015,Completed,ChautCIDA,#CA6266
14-Chautauqua,YES,5,Rand Machine Products,2072 Allen St.,Falconer,NY,42.1135170,-79.1925770,"8,325 SF addition and construction ",Ruhlman Industrial Properties LLC,$6.0,2014,Completed,ChautCIDA,#CA6266
14-Chautauqua,YES,6,Upstate Shredding LLC,610 W. 8th St.,Jamestown,NY,42.0996940,-79.2500480,"6,000 SF warehouse to sort and clean non-ferrous metals",,$4.0,2015,Completed,David,#CA6266
14-Chautauqua,YES,7,Lakewood Village Center,279 Fairmount Ave.,Lakewood,NY,42.0996790,-79.3069870,"Renovation of 81,976 SF retail plaza",,$3.7,2014,Completed,ChautCIDA,#CA6266
14-Chautauqua,YES,8,Erie Train Station,211 W 2nd St.,Jamestown,NY,42.0942140,-79.2455640,"Renovation of historic 21,000 SF Erie-Lackawanna train station",Piccone Construction,$12.0,2013,Completed,Jim,#CA6266
14-Chautauqua,YES,9,Fairway Pointe Senior Village,2123 Southwestern Drive,Lakewood,NY,42.0924850,-79.2959480,116-unit independent multi-family senior living,"Calamar, Silvestri Architects",$10.0,2016,Completed,"Jim, Silvestri",#CA6266
14-Chautauqua,YES,10,Southern Tier Brewing Co. Inc.,2072 Stoneman Circle ,Lakewood,NY,42.0880540,-79.3512520,"22,500 SF warehouse ",,$3.0,2013,Completed,ChautCIDA,#CA6266
14-Chautauqua,YES,11,Cummins Inc.,4721 Baker St.,Lakewood,NY,42.0791550,-79.3640770,Photovoltaic system installation,Trautman Architects,$5.0,2015,Completed,Trautman,#CA6266
14-Chautauqua,YES,12,Peek N' Peak,1405 Ye Olde Road,Clymer,NY,42.0208500,-79.6299620,"Renovations to 125,000 SF hotel ",,$4.0,2013,Completed,ChautCIDA,#CA6266
14-Chautauqua,YES,13,Seneca Nation Wind Turbines,11093 Erie Road,Irving,NY,42.5802530,-79.1063720,1.5 megawatt wind turbine to provide electricity to Cattaraugus Territory,"Seneca Nation of Indians, Seneca Energy LLC",$6.0,2017,Under,"Jim, Senecas",#009770
14-Chautauqua,YES,14,Athenex Manufacturing Center,3817 Lake Shore Drive East,Dunkirk,NY,42.4976370,-79.3089450,"300,000 SF manufacturing plant for oncology drug manufacturer",SUNY Polytech,"$1,600.0",2019,Under,"JIM, ChautCIDA",#009770
14-Chautauqua,YES,15,Chadwick Bay Marina,24 Lake Shore Drive West,Dunkirk,NY,42.4893950,-79.3376530,Rehab waterfront facilities and possible hotel,Charles Pringle,$4.0,2018,Under,ChautCIDA,#009770
14-Chautauqua,YES,16,Petri Baking Products Inc.,26 Talcott St.,Dunkirk,NY,42.4839290,-79.3220170,Conversion of former ConAgra factory into cookie-baking operation,,$18.0,2016,Under,Jim,#009770
14-Chautauqua,YES,17,Fairway Inn & Suites,Vineyard Drive-DELETE UNLESS JIM KNOWS,Dunkirk,NY,42.4602730,-79.3163170,Construction of four-story 70-room hotel,Dunkirk Kasturi,$5.0,2016,Under,ChautCIDA,#009770
14-Chautauqua,YES,18,Wind projects,Northern Chautauqua County,,NY,42.3383590,-79.1959060,,,$536.0,2019,Under,ChautCIDA,#009770
14-Chautauqua,YES,19,Jamestown Community College,512 Falconer St.,Jamestown,NY,42.1125620,-79.2185190,"Renovations, construction of 5,808 SF addition for Manufacturing Technology Institute",Picone Construction Corp.,$2.4,2016,Under,Picone,#009770
14-Chautauqua,YES,20,Celeron Harbor Hotel,617 Dingers St.,Celoron,NY,42.1095020,-79.2831040,"130,000 SF destination hotel","The Krog Group, Hart-Krog JV",$20.0,2018,Under,"ChautCIDA, Krog",#009770
14-Chautauqua,YES,21,Hilton DoubleTree Jamestown,150 W. Fourth St.,Jamestown,NY,42.0971280,-79.2435900,"Renovation of Jamestown Ramada, 146 rooms, meeting and banquet space",Hamister Group LLC,$14.0,2017,Under,"ChautCIDA, Hamister",#009770
14-Chautauqua,YES,22,Covenant Manor Apartments,23 W. Third St.,Jamestown,NY,42.0961950,-79.2421420,"120,000 SF senior housing renovation",Millennia Housing Management LLC,$7.1,2016,Under,ChautCIDA,#009770
14-Chautauqua,YES,23,National Comedy Center,211 W. Second St.,Jamestown,NY,42.0942140,-79.2455640,"28,000 SF center to celebrate history of comedy and its contributors",City of Jamestown,$45.0,2017,Under,Jim,#009770
14-Chautauqua,YES,24,Cummins Inc.,4720 Baker St.,Lakewood,NY,42.0822320,-79.3609190,"40,000 SF renovation for new machine line, currently overseas",Cummins Inc.,$94.7,2017,Under,ChautCIDA,#009770
14-Chautauqua,YES,25,Castelli America LLC,5151 Fairbanks Road,Ashville,NY,42.0792360,-79.3995080,"New 100,000 SF cheese-processing center",Castelli America LLC Group,$6.5,2016,Under,ChautCIDA,#009770
14-Chautauqua,YES,26,Lecom Health Challenge,1405 Ye Olde Road,Clymer,NY,42.0208500,-79.6299620,Upgrades to ski and golf destination for PGA tournament held at Peek N' Peak for 4 years,,$7.0,2019,Under,ChautCIDA,#009770
14-Chautauqua,YES,27,Webb's Mayville,74 Water St.,Mayville,NY,42.2442340,-79.4960560,"Hotel with restaurant, banquet rooms","Jim Webb, Ben Webb",$13.0,2019,Z-Proposed,ChautCIDA,#53578F
15-Cattaraugus,YES,1,Pioneer Central School Capital Improvements,12145 Countyline Road,Yorkshire,NY,42.5285470,-78.4641390,"Various renovations and upgrades in schools, K-12","Gordon W. Jones Associates, Picone Construction",$31.0,2015,Completed,Bricks 2016,#CA6266
15-Cattaraugus,YES,2,Ontario Knife Co.,26 Empire St.,Franklinville,NY,42.3382640,-78.4602480,"28,000 SF expansion",Ontario Knife Co.,$4.4,2015,Completed,"CattIDA,Dave",#CA6266
15-Cattaraugus,YES,3,Ellicottville Square,Bristol Lane,Ellicottville,NY,42.2800530,-78.6678890,"43,000 SF renovation of baseball bat company into retail/office hub",Sprague Development Corp.,$4.0,2013,Completed,Bricks 2014,#CA6266
15-Cattaraugus,YES,4,4646 Genesee LLC,1  E. Washington St.,Ellicottville,NY,42.2791990,-78.6669280,multi use retail-adaptive reuse,"4646 Genesee, LLC",$5.3,2013,Completed,CattIDA,#CA6266
15-Cattaraugus,YES,5,"16 Martha Street, LLC",16 Martha St.,Ellicottville,NY,42.2744820,-78.6704240,"14 apartments in existing buildings, construct four buildings with 16 units each","16 Martha St., LLC",$4.3,2014,Completed,CattIDA,#CA6266
15-Cattaraugus,YES,6,HoliMont Ski Area,6921 Route 242,Ellicottville,NY,42.2730720,-78.6894410,WestMont Ridge Phase 1,"HoliMont, Inc.",$3.1,2014,Completed,CattIDA,#CA6266
15-Cattaraugus,YES,7,National Fuel Gas Supply,4052 Phillips Road,Hinsdale,NY,42.1768420,-78.3908270,Construction of two natural gas compressor station,,$42.0,2015,Completed,CattIDA,#CA6266
15-Cattaraugus,YES,8,Seneca Nation Cultural Center,82 W. Hetzel St.,Salamanca,NY,42.1570790,-78.7513120,"25,000 SF center to house Seneca-Iroquois National Museum and Seneca Nation archives",Seneca Construction Management Corp.,$13.0,2015,Completed,Senecas,#CA6266
15-Cattaraugus,YES,9,Seneca Arts & Learning Center,25 Center St.,Salamanca,NY,42.1563740,-78.7411490,"Education facility housing Seneca Nation Early Childhood Center, language and education department in former Seneca Elementary School","Seneca Construction Management Corp., Seneca Nation of Indians",$12.0,2016,Completed,Senecas,#CA6266
15-Cattaraugus,YES,10,MJ Painting Contractor Corp.,291 Homer St.,Olean,NY,42.0956180,-78.4460620,Construction of three buildings and equipment purchases,,$5.0,2015,Completed,CattIDA,#CA6266
15-Cattaraugus,YES,11,St. Bonaventure University dorm renovations,3261 W. State Road,St. Bonaventure,NY,42.0799020,-78.4845210,"Renovations to Devereux, Robinson and Falconio dorms",Cannon Design,$10.0,2014,Completed,CattIDA,#CA6266
15-Cattaraugus,YES,12,Community Bank,201 N. Union St.,Allegany,NY,42.0796410,-78.4301670,"60,000 SF back office center",Community Bank,$6.0,2014,Completed,CattIDA,#CA6266
15-Cattaraugus,YES,13,Manufacturer's Hanover building,101-07 N. Union St.,Olean,NY,42.0777170,-78.4304100,"Renovations of historic building into commercial, retail and residential space",Union Street Redevelopment Capital,$8.6,2015,Completed,NYS,#CA6266
15-Cattaraugus,YES,14,Zoar Valley Clinic,49 S. Water St.,Gowanda,NY,42.4617720,-78.9341060,"9,800 SF medical office; tenant is NY Office of Mental Health",Savarino Cos. LLC,$2.4,2017,Under,Savarino Cos.,#009770
15-Cattaraugus,YES,15,Woods at Bear Creek,3510 Bear Creek Road,Franklinville,NY,42.3609180,-78.5035200,Redevelopment of 450-acre Lakeland Camp,,$4.0,2017,Under,Jim,#009770
15-Cattaraugus,YES,16,Glen Burn Trail,6422 E. Washington St.,Ellicottville,NY,42.2811060,-78.6651660,Condo complex,,$3.0,2016,Under,CattIDA,#009770
15-Cattaraugus,YES,17,1887 Schoolhouse,7 Washington St.,Ellicottville,NY,42.2769410,-78.6685550,Conversion of 1887 schoolhouse into 12 condos,"Peter Krog, John Northrup",$4.0,2017,Under,,#009770
15-Cattaraugus,YES,18,American Locker Building,11 Martha St.,Ellicottville,NY,42.2745060,-78.6704440,Residential development,Wayne Bacon,$3.0,2017,Under,CattIDA,#009770
15-Cattaraugus,YES,19,Holiday Valley,6657 Holiday Valley Road,Ellicottville,NY,42.2632710,-78.6775990,"Ski slope improvements, renovations to Tannenbaum Lodge, road rebuilds",Win-Sum Ski Corp.,$4.0,2016,Under,Jim,#009770
15-Cattaraugus,YES,20,Salamanca City Central School District,50 Iroquis Drive,Salamanca,NY,42.1615480,-78.7385680,"Various renovations and upgrades in schools, K-12",Turner Construction Co.,$58.0,2019,Under,Turner,#009770
15-Cattaraugus,YES,21,Allegany Square,3864 Route 417,Allegany,NY,42.1058520,-78.5084590,"100,000 SF building convered to retail units",Sprague Development Corp.,$3.0,2016,Under,CattIDA,#009770
15-Cattaraugus,YES,22,Holiday Inn Express,101 Main St.,Olean,NY,42.0874960,-78.4289960,Convert 76-room Hampton Inn to Holiday Inn Express,"Olean Lodging Partnership, Visions Hospitality Group",$4.0,2016,Under,Jim,#009770
15-Cattaraugus,YES,23,Dresser-Rand Co.,500 Paul Clark Drive,Olean,NY,42.0855070,-78.4447180,"Renovations to testing equipment wing, drilling technology, natural gas and underwater technology divisiions",,$10.0,2017,Under,jim,#009770
15-Cattaraugus,YES,24,Olean Gateway ,1404 Buffalo St.,Olean,NY,42.0851710,-78.4450200,"Brownfield development of 60 acres into hotel, 125,000 SF retail",The Krog Group,$27.0,2017,Under,Krog,#009770
15-Cattaraugus,YES,25,Olean Central School District 2016 Capital Project ,411 W. Sullivan St.,Olean,NY,42.0812490,-78.4347410,"Renovate classrooms, generator, pool, roof, bathrooms",Campus Construction Management Group,$16.1,2019,Under,Campus Construction Management,#009770
15-Cattaraugus,YES,26,JCC Advanced Manufacturing Center,260 N. Union St.,Olean,NY,42.0811390,-78.4284800,Advanced manufacturing training center for JCC students and Olean area companies,,$6.5,2017,Under,Jim,#009770
16-Orleans,YES,1,The Cottages at Troutburg,19 Countyline Road,Kendall,NY,43.3641960,-77.9985560,3 Seasons lakefront cottage development,Ontario Lakeside Resorts,$20.0,2014,Completed,Orleans IDA,#CA6266
16-Orleans,YES,2,Empire Fruit,99 West Ave.,Lyndonville,NY,43.3259930,-78.3929280,"New controlled atmosphere, cold storage facility","Empire Fruit, DR Chamberlain",$3.5,2015,Completed,Orleans IDA,#CA6266
16-Orleans,YES,3,InterGrow,2428 Oak Orchard Road,Albion,NY,43.2991390,-78.1966290,"New building & equipment, greenhouse operation",InterGrow,$15.0,2014,Completed,Orleans IDA,#CA6266
16-Orleans,YES,4,Lake Ridge Fruit,Ridge Road,Albion,NY,43.2844710,-78.2001460,New agricultural processing plant,Lake Ridge Fruit,$2.9,2013,Completed,Orleans IDA,#CA6266
16-Orleans,YES,5,BOMET,152 McKinstry Street,Albion,NY,43.2425870,-78.1872180,Redevelopment-Manufacturing,BOMET,$1.0,2014,Completed,Orleans IDA,#CA6266
16-Orleans,YES,6,Claims Recovery Financial Services,231 East Ave.,Albion,NY,43.2420980,-78.1885800,Equipment Upgrade,CRFS,$4.0,2013,Completed,Orleans IDA,#CA6266
16-Orleans,YES,7,Claims Recovery Financial Services,231 East Ave.,Albion,NY,43.2420980,-78.1885800,Redevelopment-Back Office Site,231 East Avenue,$3.0,2013,Completed,Orleans IDA,#CA6266
16-Orleans,YES,8,Brunner International,3959 Bates Road,Medina,NY,43.2202930,-78.3684130,"49,000 SF expansion to manufacture drive axles and brake components",DA Chamberlain,$14.5,2014,Completed,"Orleans IDA, Dave",#CA6266
16-Orleans,YES,9,Velocitti,711 Park Ave.,Medina,NY,43.2178200,-78.3996140,Renovate manufacturing building,"Talis Equity, Zacker Construction",$1.0,2015,Completed,Orleans IDA,#CA6266
16-Orleans,YES,10,Western NY Energy-Corn Storage,4141 Bates Road,Medina,NY,43.2109090,-78.3663730,New corn storage facility,Western NY Energy,$2.0,2015,Completed,Orleans IDA,#CA6266
16-Orleans,YES,11,Takeform/Quorum,Maple Ridge Road,Medina,NY,43.2075500,-78.3785580,Redevelopment-Signage,Quorum,$1.5,2013,Completed,Orleans IDA,#CA6266
16-Orleans,YES,12,Pride Pak USA,Medina Business Park,Medina,NY,43.2075110,-78.3790080,"Construction of 16,000 SF fresh vegetable processing plant","Pride Pak USA, DR Chamberlain",$12.5,2016,Completed,Orleans IDA,#CA6266
16-Orleans,YES,13,Dollar General,11273 Maple Ridge Road,Medina,NY,43.2072870,-78.3945670,"9,100 SF store","CSS Construction, David Pawlik, Russell Kyte",$1.2,2013,Completed,CSS Construction,#CA6266
16-Orleans,YES,14,Niagara Food Specialties,10190 Roosevelt Highway-Route 18,Yates,NY,43.3451280,-78.4639090,Renovate food processing facility,Allied Builders,$4.5,2017,Under,Orleans IDA,#009770
16-Orleans,YES,15,Kendall School District,1932 Kendall Road,Kendall,NY,43.3227010,-78.0360340,"Various renovations and upgrades in schools, K-12",Turner Construction Co.,$26.0,2016,Under,Jim,#009770
16-Orleans,YES,16,Holley High School,16848 Lynch Road,Holley,NY,43.2348310,-78.0283920,Renovations for new senior housing,Home Properties,$12.0,2018,Under,Orleans IDA,#009770
16-Orleans,YES,17,Holley Central School District,3800 N. Main St.,Holley,NY,43.2311790,-78.0282650,"Various renovations and upgrades in schools, K-12",Turner Construction Co.,$8.5,2017,Under,Turner,#009770
16-Orleans,YES,18,Helena Chemical,Allis Road,Medina,NY,43.2227860,-78.3552980,New Agricultural support products facility,"Helena Chemical, Allied Builders",$5.0,2016,Under,Orleans IDA,#009770
16-Orleans,YES,19,Hotel,Maple Ridge Road,Medina,NY,43.2071010,-78.3919740,New building,TBD,$4.0,2017,Z-Proposed,Orleans IDA,#53578F
17-Genesee,YES,1,Insurance Auto Auction,7149 Appletree Ave,Bergen,NY,43.0737010,-77.9412380,Purchase of 36 acres to build salvage auto yard for live and live-online auctions,,$4.0,2016,Completed,Genesee IDA,#CA6266
17-Genesee,YES,2,Liberty Pumps,7000 Apple Tree Ave.,Bergen,NY,43.0730230,-77.9422010,"120,000 SF expansion for commerical pump manufacturing",Whitney East Inc.,$9.8,2016,Completed,Genesee IDA,#CA6266
17-Genesee,YES,3,U.S. Gypsum,2750 Maple Ave.,Oakfield,NY,43.0648120,-78.2977580,"Renovation and expansion of 18,400 SF facility",,$23.6,2015,Completed,Genesee IDA,#CA6266
17-Genesee,YES,4,Batavia Downs Gaming,8315 Park Road,Batavia,NY,43.0093560,-78.2050330,Renovation of country's oldest lighted harness track,Allied Construction,$28.6,2015,Completed,Bricks 2016,#CA6266
17-Genesee,YES,5,Senior housing,3989 W. Main Street Road,Batavia ,NY,43.0089820,-78.2190400,"117,000 SF three-story buiding to house 110 senior apartment units",Calamar,$11.0,2015,Completed,Genesee IDA,#CA6266
17-Genesee,YES,6,Reed Batavia Properties LLC,229 Summit St.,Batavia,NY,43.0068120,-78.1767490,Renovation of former school administration building into eye care center and office,,$1.5,2014,Completed,Genesee IDA,#CA6266
17-Genesee,YES,7,UMMC Cancer Center,127 North St.,Batavia,NY,43.0058440,-78.1766990,"Construction of 8,500 SF cancer treatment center adjacent to UMMC hospital main campus",,$6.5,2016,Completed,Genesee IDA,#CA6266
17-Genesee,YES,8,Java Farm Supply,45 Center St.,Batavia,NY,42.9991470,-78.1838460,Agri-business expansion for new Batavia location to sell ag machinery,Mancuso Commercial Realty,$1.2,2014,Completed,Batavia City,#CA6266
17-Genesee,YES,9,Tompkins Insurance Agencies Inc.,113 Main St.,Batavia ,NY,42.9970900,-78.1823220,Back office administrative center,,$1.6,2015,Completed,"Allissa, Genesee IDA",#CA6266
17-Genesee,YES,10,Yancey's Fancy Inc.,857 Main Road,Corfu,NY,42.9946440,-78.4227580,"Construction of 112,000 SF cheese manufacturing facility",,$20.7,2015,Completed,Genesee IDA,#CA6266
17-Genesee,YES,11,Batavia Shoes LLC,3 Treadeasy Ave.,Batavia,NY,42.9936870,-78.2023810,Leather footwear plant expansion,,$2.9,2015,Completed,Genesee IDA,#CA6266
17-Genesee,YES,12,Graham Corp.,20 Florence Ave.,Batavia ,NY,42.9926530,-78.1683790,"25,239 SF expansion of manufacturing plant including new bays and material handling ancillary buildings",Manning Squires Hennig Co.,$5.5,2015,Completed,Genesee IDA,#CA6266
17-Genesee,YES,13,Premier Credit of North America LLC,1 Mill St.,Batavia,NY,42.9926070,-78.1890090,"13,500 SF call center for 150 employees ",Mancuso Commercial Realty,$1.6,2013,Completed,Batavia City,#CA6266
17-Genesee,YES,14,Alpina Foods,5011 AgPark Drive,Batavia ,NY,42.9835870,-78.1416320,"Interior expansion of 42,000 SF manufacturing space",,$3.0,2015,Completed,Genesee IDA,#CA6266
17-Genesee,YES,15,Muller Quaker Dairy,5140 Ag Park Drive West,Batavia ,NY,42.9815240,-78.1417580,"Construction of 363,000 SF yogurt manufacturing facility",Haskell,$206.0,2013,Completed,Genesee IDA,#CA6266
17-Genesee,YES,16,Darien Lake Amusement Park,9993 Alleghany Road,Darien,NY,42.9282190,-78.3861120,"Six-flume racing water slide, replace roller coaster train for Ride of Steel",,$2.8,2016,Completed,"Genesee IDA, Jim",#CA6266
17-Genesee,YES,17,Genesee Community College Foundation,1 College Road,Batavia,NY,43.0170700,-78.1378960,"5,600 SF event center, 18,478 SF student success center",,$24.5,2017,Under,Genesee IDA,#009770
17-Genesee,YES,18,Genesee Community College,1 College Road,Batavia,NY,43.0170700,-78.1378960,Student housing project,,$4.9,2017,Under,Genesee IDA,#009770
17-Genesee,YES,19,Veterans Cemetery,Indian Falls Road,Pembroke,NY,43.0169200,-78.3990360,132 acre cemetery for veterans and families,,$36.0,2017,Under,Jim,#009770
17-Genesee,YES,20,COR Veterans Memorial Drive,4226 Veterans Memorial Drive,Batavia,NY,43.0148290,-78.2024460,"Re-use project of Batavia Towne Center, formerly Lowes Building. 32,251 SF addition for three new national retailers",COR Development,$7.0,2016,Under,Genesee IDA,#009770
17-Genesee,YES,21,1366 Technologies Inc.,WNY STAMP Complex,Alabama,NY,43.0139190,-78.1429170,"100,000 SF plant to produce high-tech solar wafers","Genesee County Economic Development Center, Empire State Development",$708.0,2017,Under,Jim,#009770
17-Genesee,YES,22,VA Women's Mental Health Center,***,Batavia,,43.0117770,-78.1990670,"12-bed, 10,000 SF housing residence and treatment center for returning women veterans",Cannon,$4.0,2017,Under,Cannon,#009770
17-Genesee,YES,23,Batavia Downs hotel,8315 Park Road,Batavia,NY,43.0093560,-78.2050330,Construction of 82-room hotel,ADK Hospitality LLC,$5.0,2016,Under,Jim,#009770
17-Genesee,YES,24,Big Tree Glen,West Main St. Road,Batavia,NY,43.0080880,-78.2341620,106-unit housing complex,Conifer-LeChase,$12.2,2016,Under,Genesee IDA,#009770
17-Genesee,YES,25,Manning Squires Hennig Co.,8426 Seven Springs Road,Batavia,NY,43.0059060,-78.1340500,"9,500 SF expansion of corporate office",Manning Squires Hennig,$1.3,2016,Under,"Jim, Genesee IDA",#009770
17-Genesee,YES,26,O-AT-KA Milk Products Cooperative Inc.,700 Ellicott St.,Batavia,NY,42.9799730,-78.1680030,"205,000 SF warehouse expansion",Upstate Niagara Cooperative Inc.,$20.9,2016,Under,Genesee IDA,#009770
17-Genesee,YES,27,Project Batavia Square,***Middle of Batavia,Batavia,NY,42.9981160,-78.1875170,"Construction of 108,000 SF, four-story retail and residential for special needs workforce and veterans housing",,$21.0,2018,Z-Proposed,Genesee IDA,#53578F
17-Genesee,YES,28,Ellicott Square,56 Ellicott St.,Batavia,NY,42.9954000,-78.1842260,"Renovate site into 72,000 SF of entertainment, office, light industrial, residential",Savarino Cos. LLC,$17.0,2018,Z-Proposed,Genesee IDA,#53578F
18-Wyoming,YES,1,Tops Markets LLC,2382 NY-Route 19,Warsaw,NY,42.7658680,-78.1289700,"Renovation of 46,000 SF store",,$1.2,2014,Completed,Jim,#CA6266
18-Wyoming,YES,2,Center Street Business Center,36 Center St.,Warsaw,NY,42.7390360,-78.1352600,"Redevelopment of 28,000 SF warehouse into office space",Mooney Construction,$4.6,2015,Completed,WCIDA,#CA6266
